{
"type": "FeatureCollection",
"crs": { "type": "name", "properties": { "name": "urn:ogc:def:crs:OGC:1.3:CRS84" } },
                                                                                
"features": [
{ "type": "Feature", "properties": { "NAME": "Ca La Padrina Carmen", "LAT": 42.567500, "LON": 1.601269, "CAPACITY": 40, "LANGS": "CA", "STARS": "?", "CLUSTER": null }, "geometry": { "type": "Point", "coordinates": [ 1.601269, 42.5675 ] } },
{ "type": "Feature", "properties": { "NAME": "La Cabana - Espiolets", "LAT": 42.578208, "LON": 1.646190, "CAPACITY": 169, "LANGS": "CA,ES,FR,EN", "STARS": "?", "CLUSTER": null }, "geometry": { "type": "Point", "coordinates": [ 1.64619, 42.578208 ] } },
{ "type": "Feature", "properties": { "NAME": "El Cyrano de Bergerac", "LAT": 42.533943, "LON": 1.580331, "CAPACITY": 30, "LANGS": "CA,ES,FR,EN", "STARS": "?", "CLUSTER": null }, "geometry": { "type": "Point", "coordinates": [ 1.580331, 42.533943 ] } },
{ "type": "Feature", "properties": { "NAME": "La Marmita", "LAT": 42.531777, "LON": 1.698922, "CAPACITY": 60, "LANGS": "CA,ES,FR,EN", "STARS": "?", "CLUSTER": null }, "geometry": { "type": "Point", "coordinates": [ 1.698922, 42.531777 ] } },
{ "type": "Feature", "properties": { "NAME": "La Vaqueria", "LAT": 42.531777, "LON": 1.698922, "CAPACITY": 30, "LANGS": "CA,ES,FR,EN", "STARS": "?", "CLUSTER": null }, "geometry": { "type": "Point", "coordinates": [ 1.698922, 42.531777 ] } },
{ "type": "Feature", "properties": { "NAME": "El Teatre Del Vi", "LAT": 42.531777, "LON": 1.698922, "CAPACITY": 8, "LANGS": "CA,ES,FR,EN", "STARS": "?", "CLUSTER": null }, "geometry": { "type": "Point", "coordinates": [ 1.698922, 42.531777 ] } },
{ "type": "Feature", "properties": { "NAME": "Granja Camps Elisis", "LAT": 42.540705, "LON": 1.733794, "CAPACITY": 100, "LANGS": "CA,ES,FR,EN", "STARS": "?", "CLUSTER": null }, "geometry": { "type": "Point", "coordinates": [ 1.733794, 42.540705 ] } },
{ "type": "Feature", "properties": { "NAME": "Niu Nit", "LAT": 42.616560, "LON": 1.538343, "CAPACITY": 70, "LANGS": "CA,ES,FR,EN", "STARS": "?", "CLUSTER": null }, "geometry": { "type": "Point", "coordinates": [ 1.538343, 42.61656 ] } },
{ "type": "Feature", "properties": { "NAME": "La Coma D'Arcalis", "LAT": 42.631982, "LON": 1.481771, "CAPACITY": 200, "LANGS": "CA,ES,FR,EN", "STARS": "?", "CLUSTER": null }, "geometry": { "type": "Point", "coordinates": [ 1.481771, 42.631982 ] } },
{ "type": "Feature", "properties": { "NAME": "L'Hortell", "LAT": 42.631851, "LON": 1.499709, "CAPACITY": 100, "LANGS": "CA,ES,FR,EN", "STARS": "?", "CLUSTER": null }, "geometry": { "type": "Point", "coordinates": [ 1.499709, 42.631851 ] } },
{ "type": "Feature", "properties": { "NAME": "Cal Mos", "LAT": 42.545832, "LON": 1.514513, "CAPACITY": 40, "LANGS": "CA,ES,FR,EN", "STARS": "?", "CLUSTER": null }, "geometry": { "type": "Point", "coordinates": [ 1.514513, 42.545832 ] } },
{ "type": "Feature", "properties": { "NAME": "Rústic", "LAT": 42.536062, "LON": 1.491555, "CAPACITY": 250, "LANGS": "CA,ES,FR,EN", "STARS": "?", "CLUSTER": null }, "geometry": { "type": "Point", "coordinates": [ 1.491555, 42.536062 ] } },
{ "type": "Feature", "properties": { "NAME": "Self Service (Arinsal)", "LAT": 42.573074, "LON": 1.470710, "CAPACITY": 400, "LANGS": "CA,ES,FR,EN", "STARS": "?", "CLUSTER": null }, "geometry": { "type": "Point", "coordinates": [ 1.47071, 42.573074 ] } },
{ "type": "Feature", "properties": { "NAME": "Self Service (Pal)", "LAT": 42.536177, "LON": 1.491610, "CAPACITY": 220, "LANGS": "CA,ES,FR,EN", "STARS": "?", "CLUSTER": null }, "geometry": { "type": "Point", "coordinates": [ 1.49161, 42.536177 ] } },
{ "type": "Feature", "properties": { "NAME": "Borda Can Toni", "LAT": 42.537970, "LON": 1.519395, "CAPACITY": 20, "LANGS": "CA,ES,FR", "STARS": "?", "CLUSTER": null }, "geometry": { "type": "Point", "coordinates": [ 1.519395, 42.53797 ] } },
{ "type": "Feature", "properties": { "NAME": "El Rebost Del Padri", "LAT": 42.506896, "LON": 1.521099, "CAPACITY": 15, "LANGS": "CA,ES,FR,EN", "STARS": "?", "CLUSTER": null }, "geometry": { "type": "Point", "coordinates": [ 1.521099, 42.506896 ] } },
{ "type": "Feature", "properties": { "NAME": "Pizzeria Cal Cuba", "LAT": 42.506433, "LON": 1.516054, "CAPACITY": 20, "LANGS": "CA,ES,FR,EN", "STARS": "?", "CLUSTER": null }, "geometry": { "type": "Point", "coordinates": [ 1.516054, 42.506433 ] } },
{ "type": "Feature", "properties": { "NAME": "Valor", "LAT": 42.495446, "LON": 1.498714, "CAPACITY": 30, "LANGS": "CA,ES,FR", "STARS": "?", "CLUSTER": null }, "geometry": { "type": "Point", "coordinates": [ 1.498714, 42.495446 ] } },
{ "type": "Feature", "properties": { "NAME": "Mes Bo", "LAT": 42.509972, "LON": 1.531451, "CAPACITY": 40, "LANGS": "CA,ES,FR", "STARS": "?", "CLUSTER": null }, "geometry": { "type": "Point", "coordinates": [ 1.531451, 42.509972 ] } },
{ "type": "Feature", "properties": { "NAME": "L'Aquari", "LAT": 42.500273, "LON": 1.517553, "CAPACITY": 50, "LANGS": "CA,ES", "STARS": "?", "CLUSTER": null }, "geometry": { "type": "Point", "coordinates": [ 1.517553, 42.500273 ] } },
{ "type": "Feature", "properties": { "NAME": "Trevol Verd", "LAT": 42.499751, "LON": 1.508866, "CAPACITY": 60, "LANGS": "CA,ES,FR", "STARS": "?", "CLUSTER": null }, "geometry": { "type": "Point", "coordinates": [ 1.508866, 42.499751 ] } },
{ "type": "Feature", "properties": { "NAME": "Can Jovi", "LAT": 42.497732, "LON": 1.503282, "CAPACITY": 60, "LANGS": "CA,ES,FR,EN", "STARS": "?", "CLUSTER": null }, "geometry": { "type": "Point", "coordinates": [ 1.503282, 42.497732 ] } },
{ "type": "Feature", "properties": { "NAME": "La Sardana", "LAT": 42.506433, "LON": 1.530554, "CAPACITY": 30, "LANGS": "CA,ES", "STARS": "?", "CLUSTER": null }, "geometry": { "type": "Point", "coordinates": [ 1.530554, 42.506433 ] } },
{ "type": "Feature", "properties": { "NAME": "Bar Restaurant-Park Infantil - Serradells", "LAT": 42.499828, "LON": 1.518549, "CAPACITY": 100, "LANGS": "CA,ES,FR,EN", "STARS": "?", "CLUSTER": null }, "geometry": { "type": "Point", "coordinates": [ 1.518549, 42.499828 ] } },
{ "type": "Feature", "properties": { "NAME": "Self-Service Punt De Trobada Centre Comercial", "LAT": 42.448035, "LON": 1.481756, "CAPACITY": 386, "LANGS": "CA,ES,FR", "STARS": "?", "CLUSTER": null }, "geometry": { "type": "Point", "coordinates": [ 1.481756, 42.448035 ] } },
{ "type": "Feature", "properties": { "NAME": "Bar Restaurant Carmen", "LAT": 42.475836, "LON": 1.487320, "CAPACITY": 50, "LANGS": "CA,ES,FR,EN", "STARS": "?", "CLUSTER": null }, "geometry": { "type": "Point", "coordinates": [ 1.48732, 42.475836 ] } },
{ "type": "Feature", "properties": { "NAME": "Restaurant La Toscana (Tropical)", "LAT": 42.512886, "LON": 1.551229, "CAPACITY": 156, "LANGS": "CA,ES,FR,EN", "STARS": "?", "CLUSTER": null }, "geometry": { "type": "Point", "coordinates": [ 1.551229, 42.512886 ] } },
{ "type": "Feature", "properties": { "NAME": "Borda Patxeta", "LAT": 42.565977, "LON": 1.566067, "CAPACITY": 25, "LANGS": "CA,ES,FR", "STARS": "5", "CLUSTER": null }, "geometry": { "type": "Point", "coordinates": [ 1.566067, 42.565977 ] } },
{ "type": "Feature", "properties": { "NAME": "Cal Bonavida", "LAT": 42.566501, "LON": 1.600053, "CAPACITY": 40, "LANGS": "CA,ES,FR,EN", "STARS": "5", "CLUSTER": null }, "geometry": { "type": "Point", "coordinates": [ 1.600053, 42.566501 ] } },
{ "type": "Feature", "properties": { "NAME": "Koy Hermitage", "LAT": 42.575867, "LON": 1.669719, "CAPACITY": 20, "LANGS": "CA,ES,FR,EN", "STARS": "5", "CLUSTER": null }, "geometry": { "type": "Point", "coordinates": [ 1.669719, 42.575867 ] } },
{ "type": "Feature", "properties": { "NAME": "La Palmera De La Neu", "LAT": 42.576897, "LON": 1.667068, "CAPACITY": 55, "LANGS": "CA,ES,FR,EN", "STARS": "5", "CLUSTER": null }, "geometry": { "type": "Point", "coordinates": [ 1.667068, 42.576897 ] } },
{ "type": "Feature", "properties": { "NAME": "Univers", "LAT": 42.537026, "LON": 1.582278, "CAPACITY": 50, "LANGS": "CA,ES,FR,EN", "STARS": "5", "CLUSTER": null }, "geometry": { "type": "Point", "coordinates": [ 1.582278, 42.537026 ] } },
{ "type": "Feature", "properties": { "NAME": "L'Ovella", "LAT": 42.533848, "LON": 1.587986, "CAPACITY": 120, "LANGS": "CA,ES,FR,EN", "STARS": "5", "CLUSTER": null }, "geometry": { "type": "Point", "coordinates": [ 1.587986, 42.533848 ] } },
{ "type": "Feature", "properties": { "NAME": "Antic", "LAT": 42.580320, "LON": 1.518885, "CAPACITY": 90, "LANGS": "CA,ES,FR,EN", "STARS": "5", "CLUSTER": null }, "geometry": { "type": "Point", "coordinates": [ 1.518885, 42.58032 ] } },
{ "type": "Feature", "properties": { "NAME": "Arrosseria Marisqueria II", "LAT": 42.555629, "LON": 1.533467, "CAPACITY": 60, "LANGS": "CA,ES,FR,EN", "STARS": "5", "CLUSTER": null }, "geometry": { "type": "Point", "coordinates": [ 1.533467, 42.555629 ] } },
{ "type": "Feature", "properties": { "NAME": "Rutllan", "LAT": 42.547378, "LON": 1.513238, "CAPACITY": 200, "LANGS": "CA,ES,FR,EN", "STARS": "5", "CLUSTER": null }, "geometry": { "type": "Point", "coordinates": [ 1.513238, 42.547378 ] } },
{ "type": "Feature", "properties": { "NAME": "Diana Parc", "LAT": 42.573961, "LON": 1.482182, "CAPACITY": 100, "LANGS": "CA,ES,FR,EN", "STARS": "5", "CLUSTER": null }, "geometry": { "type": "Point", "coordinates": [ 1.482182, 42.573961 ] } },
{ "type": "Feature", "properties": { "NAME": "Xalet Verdú", "LAT": 42.574907, "LON": 1.481967, "CAPACITY": 30, "LANGS": "CA,ES,FR,EN", "STARS": "5", "CLUSTER": null }, "geometry": { "type": "Point", "coordinates": [ 1.481967, 42.574907 ] } },
{ "type": "Feature", "properties": { "NAME": "Borda Jovell", "LAT": 42.536143, "LON": 1.516434, "CAPACITY": 40, "LANGS": "CA,ES,FR,EN", "STARS": "5", "CLUSTER": null }, "geometry": { "type": "Point", "coordinates": [ 1.516434, 42.536143 ] } },
{ "type": "Feature", "properties": { "NAME": "L'Estela", "LAT": 42.505165, "LON": 1.518420, "CAPACITY": 60, "LANGS": "CA,ES,FR,EN", "STARS": "5", "CLUSTER": null }, "geometry": { "type": "Point", "coordinates": [ 1.51842, 42.505165 ] } },
{ "type": "Feature", "properties": { "NAME": "La Taverna D'Ali", "LAT": 42.506838, "LON": 1.529950, "CAPACITY": 30, "LANGS": "CA,ES,FR,EN", "STARS": "5", "CLUSTER": null }, "geometry": { "type": "Point", "coordinates": [ 1.52995, 42.506838 ] } },
{ "type": "Feature", "properties": { "NAME": "Nostrum", "LAT": 42.506762, "LON": 1.530468, "CAPACITY": 20, "LANGS": "CA,ES", "STARS": "5", "CLUSTER": null }, "geometry": { "type": "Point", "coordinates": [ 1.530468, 42.506762 ] } },
{ "type": "Feature", "properties": { "NAME": "Monxi El Pirata", "LAT": 42.496386, "LON": 1.500396, "CAPACITY": 30, "LANGS": "CA,ES,FR", "STARS": "5", "CLUSTER": null }, "geometry": { "type": "Point", "coordinates": [ 1.500396, 42.496386 ] } },
{ "type": "Feature", "properties": { "NAME": "El Cantabric A Taula", "LAT": 42.465402, "LON": 1.491233, "CAPACITY": 25, "LANGS": "CA,ES,FR", "STARS": "5", "CLUSTER": null }, "geometry": { "type": "Point", "coordinates": [ 1.491233, 42.465402 ] } },
{ "type": "Feature", "properties": { "NAME": "Arrosseria - Pi De Migdia", "LAT": 42.568467, "LON": 1.643345, "CAPACITY": 70, "LANGS": "CA,ES,FR,EN", "STARS": "4.5", "CLUSTER": null }, "geometry": { "type": "Point", "coordinates": [ 1.643345, 42.568467 ] } },
{ "type": "Feature", "properties": { "NAME": "El Saler", "LAT": 42.580575, "LON": 1.640753, "CAPACITY": 70, "LANGS": "CA,ES,FR", "STARS": "4.5", "CLUSTER": null }, "geometry": { "type": "Point", "coordinates": [ 1.640753, 42.580575 ] } },
{ "type": "Feature", "properties": { "NAME": "Del Tarter", "LAT": 42.578793, "LON": 1.649998, "CAPACITY": 30, "LANGS": "CA,ES,FR,EN", "STARS": "4.5", "CLUSTER": null }, "geometry": { "type": "Point", "coordinates": [ 1.649998, 42.578793 ] } },
{ "type": "Feature", "properties": { "NAME": "L'Abarset", "LAT": 42.579031, "LON": 1.649518, "CAPACITY": 43, "LANGS": "CA,ES,FR,EN", "STARS": "4.5", "CLUSTER": null }, "geometry": { "type": "Point", "coordinates": [ 1.649518, 42.579031 ] } },
{ "type": "Feature", "properties": { "NAME": "L'Avet", "LAT": 42.544102, "LON": 1.734660, "CAPACITY": 45, "LANGS": "CA,ES,FR,EN", "STARS": "4.5", "CLUSTER": null }, "geometry": { "type": "Point", "coordinates": [ 1.73466, 42.544102 ] } },
{ "type": "Feature", "properties": { "NAME": "L'Era Del Rossell", "LAT": 42.553602, "LON": 1.590453, "CAPACITY": 36, "LANGS": "CA,ES,FR,EN", "STARS": "4.5", "CLUSTER": null }, "geometry": { "type": "Point", "coordinates": [ 1.590453, 42.553602 ] } },
{ "type": "Feature", "properties": { "NAME": "La Caleta", "LAT": 42.577226, "LON": 1.665361, "CAPACITY": 30, "LANGS": "CA,ES,FR,EN", "STARS": "4.5", "CLUSTER": null }, "geometry": { "type": "Point", "coordinates": [ 1.665361, 42.577226 ] } },
{ "type": "Feature", "properties": { "NAME": "La Taula Dels Amics", "LAT": 42.565872, "LON": 1.598074, "CAPACITY": 30, "LANGS": "CA,ES,FR,EN", "STARS": "4.5", "CLUSTER": null }, "geometry": { "type": "Point", "coordinates": [ 1.598074, 42.565872 ] } },
{ "type": "Feature", "properties": { "NAME": "Restaurant L'Ermita", "LAT": 42.553883, "LON": 1.590266, "CAPACITY": 30, "LANGS": "CA,ES,FR,EN", "STARS": "4.5", "CLUSTER": null }, "geometry": { "type": "Point", "coordinates": [ 1.590266, 42.553883 ] } },
{ "type": "Feature", "properties": { "NAME": "La Llar de l'Artesà - Borda Popaire", "LAT": 42.559522, "LON": 1.685831, "CAPACITY": 50, "LANGS": "CA,ES,FR,EN", "STARS": "4.5", "CLUSTER": null }, "geometry": { "type": "Point", "coordinates": [ 1.685831, 42.559522 ] } },
{ "type": "Feature", "properties": { "NAME": "Roc De Les Bruixes - El Forn", "LAT": 42.565930, "LON": 1.601536, "CAPACITY": 90, "LANGS": "CA,ES,FR,EN", "STARS": "4.5", "CLUSTER": null }, "geometry": { "type": "Point", "coordinates": [ 1.601536, 42.56593 ] } },
{ "type": "Feature", "properties": { "NAME": "La Taverna de la Iaia", "LAT": 42.576966, "LON": 1.667457, "CAPACITY": 40, "LANGS": "CA,ES,FR,EN", "STARS": "4.5", "CLUSTER": null }, "geometry": { "type": "Point", "coordinates": [ 1.667457, 42.576966 ] } },
{ "type": "Feature", "properties": { "NAME": "Coray", "LAT": 42.535188, "LON": 1.584949, "CAPACITY": 150, "LANGS": "CA,ES,FR,EN", "STARS": "4.5", "CLUSTER": null }, "geometry": { "type": "Point", "coordinates": [ 1.584949, 42.535188 ] } },
{ "type": "Feature", "properties": { "NAME": "Can Fontcuberta", "LAT": 42.534418, "LON": 1.582847, "CAPACITY": 50, "LANGS": "CA,ES,FR,EN", "STARS": "4.5", "CLUSTER": null }, "geometry": { "type": "Point", "coordinates": [ 1.582847, 42.534418 ] } },
{ "type": "Feature", "properties": { "NAME": "Borda Del Tremat", "LAT": 42.534481, "LON": 1.583163, "CAPACITY": 30, "LANGS": "CA,ES,FR,EN", "STARS": "4.5", "CLUSTER": null }, "geometry": { "type": "Point", "coordinates": [ 1.583163, 42.534481 ] } },
{ "type": "Feature", "properties": { "NAME": "Restaurant Borda Vella", "LAT": 42.534888, "LON": 1.579188, "CAPACITY": 50, "LANGS": "CA,ES,EN", "STARS": "4.5", "CLUSTER": null }, "geometry": { "type": "Point", "coordinates": [ 1.579188, 42.534888 ] } },
{ "type": "Feature", "properties": { "NAME": "El Cresper", "LAT": 42.534682, "LON": 1.580105, "CAPACITY": 30, "LANGS": "CA,ES,EN", "STARS": "4.5", "CLUSTER": null }, "geometry": { "type": "Point", "coordinates": [ 1.580105, 42.534682 ] } },
{ "type": "Feature", "properties": { "NAME": "Can Fontbernat", "LAT": 42.534443, "LON": 1.528782, "CAPACITY": 26, "LANGS": "CA,ES,FR,EN", "STARS": "4.5", "CLUSTER": null }, "geometry": { "type": "Point", "coordinates": [ 1.528782, 42.534443 ] } },
{ "type": "Feature", "properties": { "NAME": "Caliu D'En Josep", "LAT": 42.536398, "LON": 1.582723, "CAPACITY": 45, "LANGS": "CA,ES,FR,EN", "STARS": "4.5", "CLUSTER": null }, "geometry": { "type": "Point", "coordinates": [ 1.582723, 42.536398 ] } },
{ "type": "Feature", "properties": { "NAME": "Confort", "LAT": 42.542145, "LON": 1.732342, "CAPACITY": 50, "LANGS": "CA,ES,FR,EN", "STARS": "4.5", "CLUSTER": null }, "geometry": { "type": "Point", "coordinates": [ 1.732342, 42.542145 ] } },
{ "type": "Feature", "properties": { "NAME": "Els Flocs", "LAT": 42.539465, "LON": 1.733442, "CAPACITY": 70, "LANGS": "CA,ES,FR,EN", "STARS": "4.5", "CLUSTER": null }, "geometry": { "type": "Point", "coordinates": [ 1.733442, 42.539465 ] } },
{ "type": "Feature", "properties": { "NAME": "Rapid Pasta", "LAT": 42.539198, "LON": 1.733319, "CAPACITY": 30, "LANGS": "CA,ES,FR", "STARS": "4.5", "CLUSTER": null }, "geometry": { "type": "Point", "coordinates": [ 1.733319, 42.539198 ] } },
{ "type": "Feature", "properties": { "NAME": "Underground Sports Bar And Grill", "LAT": 42.541683, "LON": 1.732036, "CAPACITY": 45, "LANGS": "CA,ES,FR,EN", "STARS": "4.5", "CLUSTER": null }, "geometry": { "type": "Point", "coordinates": [ 1.732036, 42.541683 ] } },
{ "type": "Feature", "properties": { "NAME": "El Provençal", "LAT": 42.539169, "LON": 1.733372, "CAPACITY": 145, "LANGS": "CA,ES,FR,EN", "STARS": "4.5", "CLUSTER": null }, "geometry": { "type": "Point", "coordinates": [ 1.733372, 42.539169 ] } },
{ "type": "Feature", "properties": { "NAME": "Kandahar", "LAT": 42.542046, "LON": 1.731709, "CAPACITY": 160, "LANGS": "CA,ES,FR,EN", "STARS": "4.5", "CLUSTER": null }, "geometry": { "type": "Point", "coordinates": [ 1.731709, 42.542046 ] } },
{ "type": "Feature", "properties": { "NAME": "Chez Paulo - Restaurant El Pas", "LAT": 42.542951, "LON": 1.735008, "CAPACITY": 100, "LANGS": "CA,ES,FR,EN", "STARS": "4.5", "CLUSTER": null }, "geometry": { "type": "Point", "coordinates": [ 1.735008, 42.542951 ] } },
{ "type": "Feature", "properties": { "NAME": "Vodka Bar", "LAT": 42.531712, "LON": 1.698895, "CAPACITY": 26, "LANGS": "CA,ES,FR,EN", "STARS": "4.5", "CLUSTER": null }, "geometry": { "type": "Point", "coordinates": [ 1.698895, 42.531712 ] } },
{ "type": "Feature", "properties": { "NAME": "Font Blanca", "LAT": 42.576877, "LON": 1.517158, "CAPACITY": 55, "LANGS": "CA,ES,FR,EN", "STARS": "4.5", "CLUSTER": null }, "geometry": { "type": "Point", "coordinates": [ 1.517158, 42.576877 ] } },
{ "type": "Feature", "properties": { "NAME": "El Raco Del Prat De Les Mines", "LAT": 42.601631, "LON": 1.534695, "CAPACITY": 36, "LANGS": "CA,ES,FR,EN", "STARS": "4.5", "CLUSTER": null }, "geometry": { "type": "Point", "coordinates": [ 1.534695, 42.601631 ] } },
{ "type": "Feature", "properties": { "NAME": "Pizzeria Coll D'Ordino", "LAT": 42.554074, "LON": 1.533532, "CAPACITY": 53, "LANGS": "CA,ES,FR,EN", "STARS": "4.5", "CLUSTER": null }, "geometry": { "type": "Point", "coordinates": [ 1.533532, 42.554074 ] } },
{ "type": "Feature", "properties": { "NAME": "Xalet Bringue", "LAT": 42.619820, "LON": 1.540039, "CAPACITY": 90, "LANGS": "CA,ES,FR,EN", "STARS": "4.5", "CLUSTER": null }, "geometry": { "type": "Point", "coordinates": [ 1.540039, 42.61982 ] } },
{ "type": "Feature", "properties": { "NAME": "Braseria La Neu", "LAT": 42.600230, "LON": 1.532078, "CAPACITY": 45, "LANGS": "CA,ES,FR,EN", "STARS": "4.5", "CLUSTER": null }, "geometry": { "type": "Point", "coordinates": [ 1.532078, 42.60023 ] } },
{ "type": "Feature", "properties": { "NAME": "Refugi Les Portelles", "LAT": 42.618265, "LON": 1.485945, "CAPACITY": 87, "LANGS": "CA,ES,FR,EN", "STARS": "4.5", "CLUSTER": null }, "geometry": { "type": "Point", "coordinates": [ 1.485945, 42.618265 ] } },
{ "type": "Feature", "properties": { "NAME": "Restaurant L'Ensegur", "LAT": 42.555655, "LON": 1.533073, "CAPACITY": 30, "LANGS": "CA,ES,FR,EN", "STARS": "4.5", "CLUSTER": null }, "geometry": { "type": "Point", "coordinates": [ 1.533073, 42.555655 ] } },
{ "type": "Feature", "properties": { "NAME": "La Capricciosa", "LAT": 42.542459, "LON": 1.517305, "CAPACITY": 15, "LANGS": "CA,ES,EN", "STARS": "4.5", "CLUSTER": null }, "geometry": { "type": "Point", "coordinates": [ 1.517305, 42.542459 ] } },
{ "type": "Feature", "properties": { "NAME": "Sagardotegi Pub Herri", "LAT": 42.573826, "LON": 1.482883, "CAPACITY": 60, "LANGS": null, "STARS": "4.5", "CLUSTER": null }, "geometry": { "type": "Point", "coordinates": [ 1.482883, 42.573826 ] } },
{ "type": "Feature", "properties": { "NAME": "Borda Xica", "LAT": 42.544883, "LON": 1.513736, "CAPACITY": 20, "LANGS": "CA,ES,FR", "STARS": "4.5", "CLUSTER": null }, "geometry": { "type": "Point", "coordinates": [ 1.513736, 42.544883 ] } },
{ "type": "Feature", "properties": { "NAME": "Istambul Kebab Pizzeria", "LAT": 42.545472, "LON": 1.514905, "CAPACITY": 30, "LANGS": "CA,ES,FR,EN", "STARS": "4.5", "CLUSTER": null }, "geometry": { "type": "Point", "coordinates": [ 1.514905, 42.545472 ] } },
{ "type": "Feature", "properties": { "NAME": "La Taverna De Pal", "LAT": 42.536206, "LON": 1.491750, "CAPACITY": 80, "LANGS": "CA,ES,FR,EN", "STARS": "4.5", "CLUSTER": null }, "geometry": { "type": "Point", "coordinates": [ 1.49175, 42.536206 ] } },
{ "type": "Feature", "properties": { "NAME": "L'Eulari De Pal", "LAT": 42.534937, "LON": 1.524735, "CAPACITY": 55, "LANGS": "CA,ES,FR", "STARS": "4.5", "CLUSTER": null }, "geometry": { "type": "Point", "coordinates": [ 1.524735, 42.534937 ] } },
{ "type": "Feature", "properties": { "NAME": "Bonet", "LAT": 42.545523, "LON": 1.476452, "CAPACITY": 30, "LANGS": "CA,ES,FR", "STARS": "4.5", "CLUSTER": null }, "geometry": { "type": "Point", "coordinates": [ 1.476452, 42.545523 ] } },
{ "type": "Feature", "properties": { "NAME": "Pampa", "LAT": 42.578165, "LON": 1.479391, "CAPACITY": 100, "LANGS": "CA,ES,FR,EN", "STARS": "4.5", "CLUSTER": null }, "geometry": { "type": "Point", "coordinates": [ 1.479391, 42.578165 ] } },
{ "type": "Feature", "properties": { "NAME": "Restaurant Xalet - Montane", "LAT": 42.572926, "LON": 1.483890, "CAPACITY": 65, "LANGS": "CA,ES,FR,EN", "STARS": "4.5", "CLUSTER": null }, "geometry": { "type": "Point", "coordinates": [ 1.48389, 42.572926 ] } },
{ "type": "Feature", "properties": { "NAME": "Deja Vu", "LAT": 42.571914, "LON": 1.484574, "CAPACITY": 50, "LANGS": "CA,ES,EN", "STARS": "4.5", "CLUSTER": null }, "geometry": { "type": "Point", "coordinates": [ 1.484574, 42.571914 ] } },
{ "type": "Feature", "properties": { "NAME": "Ca la Lydia", "LAT": 42.544467, "LON": 1.478360, "CAPACITY": 40, "LANGS": "CA,ES,FR", "STARS": "4.5", "CLUSTER": null }, "geometry": { "type": "Point", "coordinates": [ 1.47836, 42.544467 ] } },
{ "type": "Feature", "properties": { "NAME": "La Llum D'Oli", "LAT": 42.569071, "LON": 1.488556, "CAPACITY": 40, "LANGS": "CA,ES,FR,EN", "STARS": "4.5", "CLUSTER": null }, "geometry": { "type": "Point", "coordinates": [ 1.488556, 42.569071 ] } },
{ "type": "Feature", "properties": { "NAME": "Refugi D'Arinsal", "LAT": 42.574210, "LON": 1.469986, "CAPACITY": 30, "LANGS": null, "STARS": "4.5", "CLUSTER": null }, "geometry": { "type": "Point", "coordinates": [ 1.469986, 42.57421 ] } },
{ "type": "Feature", "properties": { "NAME": "Borda Casa Vella Pales", "LAT": 42.543661, "LON": 1.523312, "CAPACITY": 50, "LANGS": "CA,ES,FR,EN", "STARS": "4.5", "CLUSTER": null }, "geometry": { "type": "Point", "coordinates": [ 1.523312, 42.543661 ] } },
{ "type": "Feature", "properties": { "NAME": "La Cuina d'en Joan", "LAT": 42.546755, "LON": 1.514053, "CAPACITY": 35, "LANGS": "CA,ES,FR,EN", "STARS": "4.5", "CLUSTER": null }, "geometry": { "type": "Point", "coordinates": [ 1.514053, 42.546755 ] } },
{ "type": "Feature", "properties": { "NAME": "El Moli De La Placa", "LAT": 42.572597, "LON": 1.483995, "CAPACITY": 45, "LANGS": "CA,ES,FR,EN", "STARS": "4.5", "CLUSTER": null }, "geometry": { "type": "Point", "coordinates": [ 1.483995, 42.572597 ] } },
{ "type": "Feature", "properties": { "NAME": "Restaurant 360º", "LAT": 42.573389, "LON": 1.483114, "CAPACITY": 50, "LANGS": "CA,ES,FR,EN", "STARS": "4.5", "CLUSTER": null }, "geometry": { "type": "Point", "coordinates": [ 1.483114, 42.573389 ] } },
{ "type": "Feature", "properties": { "NAME": "Borda D'Erts", "LAT": 42.561817, "LON": 1.496243, "CAPACITY": 55, "LANGS": null, "STARS": "4.5", "CLUSTER": null }, "geometry": { "type": "Point", "coordinates": [ 1.496243, 42.561817 ] } },
{ "type": "Feature", "properties": { "NAME": "Quo Vadis", "LAT": 42.573337, "LON": 1.483382, "CAPACITY": 200, "LANGS": null, "STARS": "4.5", "CLUSTER": null }, "geometry": { "type": "Point", "coordinates": [ 1.483382, 42.573337 ] } },
{ "type": "Feature", "properties": { "NAME": "Bambú Oriental (Palarine)", "LAT": 42.561501, "LON": 1.497488, "CAPACITY": 65, "LANGS": "CA,ES,FR,EN", "STARS": "4.5", "CLUSTER": null }, "geometry": { "type": "Point", "coordinates": [ 1.497488, 42.561501 ] } },
{ "type": "Feature", "properties": { "NAME": "El Cap Bo", "LAT": 42.508734, "LON": 1.532335, "CAPACITY": 30, "LANGS": "CA,ES,FR,EN", "STARS": "4.5", "CLUSTER": null }, "geometry": { "type": "Point", "coordinates": [ 1.532335, 42.508734 ] } },
{ "type": "Feature", "properties": { "NAME": "Restaurant Versailles", "LAT": 42.507997, "LON": 1.521754, "CAPACITY": 40, "LANGS": "CA,ES,FR,EN", "STARS": "4.5", "CLUSTER": null }, "geometry": { "type": "Point", "coordinates": [ 1.521754, 42.507997 ] } },
{ "type": "Feature", "properties": { "NAME": "Restaurant El Burg", "LAT": 42.504570, "LON": 1.515110, "CAPACITY": 80, "LANGS": "CA,ES,FR,EN", "STARS": "4.5", "CLUSTER": null }, "geometry": { "type": "Point", "coordinates": [ 1.51511, 42.50457 ] } },
{ "type": "Feature", "properties": { "NAME": "Cisco De Sans", "LAT": 42.507032, "LON": 1.520534, "CAPACITY": 50, "LANGS": "CA,ES,FR,EN", "STARS": "4.5", "CLUSTER": null }, "geometry": { "type": "Point", "coordinates": [ 1.520534, 42.507032 ] } },
{ "type": "Feature", "properties": { "NAME": "La Cava", "LAT": 42.508355, "LON": 1.521950, "CAPACITY": 46, "LANGS": "CA,ES,FR,EN", "STARS": "4.5", "CLUSTER": null }, "geometry": { "type": "Point", "coordinates": [ 1.52195, 42.508355 ] } },
{ "type": "Feature", "properties": { "NAME": "Eximi", "LAT": 42.508054, "LON": 1.522881, "CAPACITY": 60, "LANGS": "CA,ES,FR,EN", "STARS": "4.5", "CLUSTER": null }, "geometry": { "type": "Point", "coordinates": [ 1.522881, 42.508054 ] } },
{ "type": "Feature", "properties": { "NAME": "La Brasa D'En Josep", "LAT": 42.494074, "LON": 1.499897, "CAPACITY": 40, "LANGS": "CA,ES,FR", "STARS": "4.5", "CLUSTER": null }, "geometry": { "type": "Point", "coordinates": [ 1.499897, 42.494074 ] } },
{ "type": "Feature", "properties": { "NAME": "Restaurant Ca La Conxita", "LAT": 42.508792, "LON": 1.522307, "CAPACITY": 30, "LANGS": "CA,ES,FR", "STARS": "4.5", "CLUSTER": null }, "geometry": { "type": "Point", "coordinates": [ 1.522307, 42.508792 ] } },
{ "type": "Feature", "properties": { "NAME": "El Crosto", "LAT": 42.508159, "LON": 1.522191, "CAPACITY": 20, "LANGS": "CA,ES,FR", "STARS": "4.5", "CLUSTER": null }, "geometry": { "type": "Point", "coordinates": [ 1.522191, 42.508159 ] } },
{ "type": "Feature", "properties": { "NAME": "3 Eixos", "LAT": 42.507999, "LON": 1.527796, "CAPACITY": 80, "LANGS": "CA,ES", "STARS": "4.5", "CLUSTER": null }, "geometry": { "type": "Point", "coordinates": [ 1.527796, 42.507999 ] } },
{ "type": "Feature", "properties": { "NAME": "Bodega Poblet", "LAT": 42.508742, "LON": 1.521370, "CAPACITY": 30, "LANGS": "CA,ES,FR,EN", "STARS": "4.5", "CLUSTER": null }, "geometry": { "type": "Point", "coordinates": [ 1.52137, 42.508742 ] } },
{ "type": "Feature", "properties": { "NAME": "Restaurant Pizzeria La Cantina", "LAT": 42.508206, "LON": 1.521596, "CAPACITY": 30, "LANGS": "CA,ES,FR,EN", "STARS": "4.5", "CLUSTER": null }, "geometry": { "type": "Point", "coordinates": [ 1.521596, 42.508206 ] } },
{ "type": "Feature", "properties": { "NAME": "L'Escenari De Les Pizzes", "LAT": 42.509819, "LON": 1.531081, "CAPACITY": 16, "LANGS": "CA,ES,FR,EN", "STARS": "4.5", "CLUSTER": null }, "geometry": { "type": "Point", "coordinates": [ 1.531081, 42.509819 ] } },
{ "type": "Feature", "properties": { "NAME": "Plat'In", "LAT": 42.507485, "LON": 1.531799, "CAPACITY": 34, "LANGS": "CA,ES,FR,EN", "STARS": "4.5", "CLUSTER": null }, "geometry": { "type": "Point", "coordinates": [ 1.531799, 42.507485 ] } },
{ "type": "Feature", "properties": { "NAME": "Can Manel", "LAT": 42.506403, "LON": 1.515821, "CAPACITY": 45, "LANGS": "CA,ES,FR,EN", "STARS": "4.5", "CLUSTER": null }, "geometry": { "type": "Point", "coordinates": [ 1.515821, 42.506403 ] } },
{ "type": "Feature", "properties": { "NAME": "Andorra Park Hotel", "LAT": 42.509279, "LON": 1.522746, "CAPACITY": 60, "LANGS": "CA,ES,FR,EN", "STARS": "4.5", "CLUSTER": null }, "geometry": { "type": "Point", "coordinates": [ 1.522746, 42.509279 ] } },
{ "type": "Feature", "properties": { "NAME": "K L'Irina", "LAT": 42.506963, "LON": 1.528661, "CAPACITY": 42, "LANGS": "CA,ES,FR,EN", "STARS": "4.5", "CLUSTER": null }, "geometry": { "type": "Point", "coordinates": [ 1.528661, 42.506963 ] } },
{ "type": "Feature", "properties": { "NAME": "Tatú", "LAT": 42.505191, "LON": 1.525372, "CAPACITY": 40, "LANGS": "CA,ES,FR,EN", "STARS": "4.5", "CLUSTER": null }, "geometry": { "type": "Point", "coordinates": [ 1.525372, 42.505191 ] } },
{ "type": "Feature", "properties": { "NAME": "Quarts De Quinze", "LAT": 42.508002, "LON": 1.521909, "CAPACITY": 24, "LANGS": "CA,ES,FR,EN", "STARS": "4.5", "CLUSTER": null }, "geometry": { "type": "Point", "coordinates": [ 1.521909, 42.508002 ] } },
{ "type": "Feature", "properties": { "NAME": "Vietnam Gourmet", "LAT": 42.506615, "LON": 1.530659, "CAPACITY": 30, "LANGS": "CA,ES,FR,EN", "STARS": "4.5", "CLUSTER": null }, "geometry": { "type": "Point", "coordinates": [ 1.530659, 42.506615 ] } },
{ "type": "Feature", "properties": { "NAME": "Restaurant Coma", "LAT": 42.506925, "LON": 1.520784, "CAPACITY": 20, "LANGS": "CA,ES,FR,EN", "STARS": "4.5", "CLUSTER": null }, "geometry": { "type": "Point", "coordinates": [ 1.520784, 42.506925 ] } },
{ "type": "Feature", "properties": { "NAME": "Borda De Les Pubilles", "LAT": 42.462580, "LON": 1.501970, "CAPACITY": 60, "LANGS": "CA,ES,FR,EN", "STARS": "4.5", "CLUSTER": null }, "geometry": { "type": "Point", "coordinates": [ 1.50197, 42.46258 ] } },
{ "type": "Feature", "properties": { "NAME": "Pizzeria Uruguaia", "LAT": 42.462984, "LON": 1.491147, "CAPACITY": 45, "LANGS": "CA,ES", "STARS": "4.5", "CLUSTER": null }, "geometry": { "type": "Point", "coordinates": [ 1.491147, 42.462984 ] } },
{ "type": "Feature", "properties": { "NAME": "Restaurant Pizzeria Venecia", "LAT": 42.462614, "LON": 1.491177, "CAPACITY": 90, "LANGS": "CA,ES,FR", "STARS": "4.5", "CLUSTER": null }, "geometry": { "type": "Point", "coordinates": [ 1.491177, 42.462614 ] } },
{ "type": "Feature", "properties": { "NAME": "Restaurant San Telmo", "LAT": 42.465734, "LON": 1.495101, "CAPACITY": 70, "LANGS": "CA", "STARS": "4.5", "CLUSTER": null }, "geometry": { "type": "Point", "coordinates": [ 1.495101, 42.465734 ] } },
{ "type": "Feature", "properties": { "NAME": "Cafe Principal", "LAT": 42.462966, "LON": 1.490962, "CAPACITY": 50, "LANGS": "CA,ES", "STARS": "4.5", "CLUSTER": null }, "geometry": { "type": "Point", "coordinates": [ 1.490962, 42.462966 ] } },
{ "type": "Feature", "properties": { "NAME": "Parador De Canolich", "LAT": 42.474671, "LON": 1.451595, "CAPACITY": 35, "LANGS": "CA,ES,FR,EN", "STARS": "4.5", "CLUSTER": null }, "geometry": { "type": "Point", "coordinates": [ 1.451595, 42.474671 ] } },
{ "type": "Feature", "properties": { "NAME": "I Termes Carlemany", "LAT": 42.509211, "LON": 1.544384, "CAPACITY": 40, "LANGS": "CA,ES,FR", "STARS": "4.5", "CLUSTER": null }, "geometry": { "type": "Point", "coordinates": [ 1.544384, 42.509211 ] } },
{ "type": "Feature", "properties": { "NAME": "Restaurant El Passadis", "LAT": 42.510848, "LON": 1.533710, "CAPACITY": 90, "LANGS": "CA,ES,FR,EN", "STARS": "4.5", "CLUSTER": null }, "geometry": { "type": "Point", "coordinates": [ 1.53371, 42.510848 ] } },
{ "type": "Feature", "properties": { "NAME": "Restaurant El Refugi ( Tropical)", "LAT": 42.512886, "LON": 1.551229, "CAPACITY": 116, "LANGS": "CA,ES,FR,EN", "STARS": "4.5", "CLUSTER": null }, "geometry": { "type": "Point", "coordinates": [ 1.551229, 42.512886 ] } },
{ "type": "Feature", "properties": { "NAME": "Restaurant L'Enoteca", "LAT": 42.510031, "LON": 1.539752, "CAPACITY": 35, "LANGS": "CA,ES,FR,EN", "STARS": "4.5", "CLUSTER": null }, "geometry": { "type": "Point", "coordinates": [ 1.539752, 42.510031 ] } },
{ "type": "Feature", "properties": { "NAME": "Restaurant El Serch", "LAT": 42.512199, "LON": 1.535392, "CAPACITY": 50, "LANGS": "CA,ES,FR,EN", "STARS": "4.5", "CLUSTER": null }, "geometry": { "type": "Point", "coordinates": [ 1.535392, 42.512199 ] } },
{ "type": "Feature", "properties": { "NAME": "Borda Del Rector", "LAT": 42.582664, "LON": 1.662712, "CAPACITY": 80, "LANGS": "CA,ES,FR,EN", "STARS": "4", "CLUSTER": null }, "geometry": { "type": "Point", "coordinates": [ 1.662712, 42.582664 ] } },
{ "type": "Feature", "properties": { "NAME": "Els Pessons", "LAT": 42.574299, "LON": 1.620532, "CAPACITY": 40, "LANGS": "CA,ES,FR", "STARS": "4", "CLUSTER": null }, "geometry": { "type": "Point", "coordinates": [ 1.620532, 42.574299 ] } },
{ "type": "Feature", "properties": { "NAME": "Fabrica De Gel", "LAT": 42.566329, "LON": 1.598071, "CAPACITY": 80, "LANGS": "CA,ES,FR,EN", "STARS": "4", "CLUSTER": null }, "geometry": { "type": "Point", "coordinates": [ 1.598071, 42.566329 ] } },
{ "type": "Feature", "properties": { "NAME": "Frankfurt El Cobert", "LAT": 42.566139, "LON": 1.598350, "CAPACITY": 30, "LANGS": "CA,ES,FR", "STARS": "4", "CLUSTER": null }, "geometry": { "type": "Point", "coordinates": [ 1.59835, 42.566139 ] } },
{ "type": "Feature", "properties": { "NAME": "Bruxelles", "LAT": 42.576944, "LON": 1.666526, "CAPACITY": 50, "LANGS": "CA,ES,FR,EN", "STARS": "4", "CLUSTER": null }, "geometry": { "type": "Point", "coordinates": [ 1.666526, 42.576944 ] } },
{ "type": "Feature", "properties": { "NAME": "Llop Gris", "LAT": 42.578119, "LON": 1.648361, "CAPACITY": 80, "LANGS": "CA,ES,FR,EN", "STARS": "4", "CLUSTER": null }, "geometry": { "type": "Point", "coordinates": [ 1.648361, 42.578119 ] } },
{ "type": "Feature", "properties": { "NAME": "Naudi", "LAT": 42.576831, "LON": 1.666104, "CAPACITY": 100, "LANGS": "CA,ES,FR,EN", "STARS": "4", "CLUSTER": null }, "geometry": { "type": "Point", "coordinates": [ 1.666104, 42.576831 ] } },
{ "type": "Feature", "properties": { "NAME": "Parador Canaro", "LAT": 42.579037, "LON": 1.658769, "CAPACITY": 140, "LANGS": "CA,ES,FR,EN", "STARS": "4", "CLUSTER": null }, "geometry": { "type": "Point", "coordinates": [ 1.658769, 42.579037 ] } },
{ "type": "Feature", "properties": { "NAME": "Peretol", "LAT": 42.560438, "LON": 1.682079, "CAPACITY": 60, "LANGS": "CA,ES,FR,EN", "STARS": "4", "CLUSTER": null }, "geometry": { "type": "Point", "coordinates": [ 1.682079, 42.560438 ] } },
{ "type": "Feature", "properties": { "NAME": "Soldeu Maistre", "LAT": 42.577215, "LON": 1.666269, "CAPACITY": 30, "LANGS": "CA,ES,FR,EN", "STARS": "4", "CLUSTER": null }, "geometry": { "type": "Point", "coordinates": [ 1.666269, 42.577215 ] } },
{ "type": "Feature", "properties": { "NAME": "Xalet Montana", "LAT": 42.577175, "LON": 1.666113, "CAPACITY": 90, "LANGS": "CA,ES,FR,EN", "STARS": "4", "CLUSTER": null }, "geometry": { "type": "Point", "coordinates": [ 1.666113, 42.577175 ] } },
{ "type": "Feature", "properties": { "NAME": "Origen", "LAT": 42.575617, "LON": 1.670887, "CAPACITY": 45, "LANGS": "CA,ES,FR,EN", "STARS": "4", "CLUSTER": null }, "geometry": { "type": "Point", "coordinates": [ 1.670887, 42.575617 ] } },
{ "type": "Feature", "properties": { "NAME": "Restaurant Manacor Grill", "LAT": 42.579005, "LON": 1.641378, "CAPACITY": 100, "LANGS": "CA,ES,FR,EN", "STARS": "4", "CLUSTER": null }, "geometry": { "type": "Point", "coordinates": [ 1.641378, 42.579005 ] } },
{ "type": "Feature", "properties": { "NAME": "Restaurant Moli Del Peano", "LAT": 42.567835, "LON": 1.602384, "CAPACITY": 35, "LANGS": "CA,ES,FR,EN", "STARS": "4", "CLUSTER": null }, "geometry": { "type": "Point", "coordinates": [ 1.602384, 42.567835 ] } },
{ "type": "Feature", "properties": { "NAME": "Ski Plaza", "LAT": 42.565811, "LON": 1.597390, "CAPACITY": 100, "LANGS": "CA,ES,FR,EN", "STARS": "4", "CLUSTER": null }, "geometry": { "type": "Point", "coordinates": [ 1.59739, 42.565811 ] } },
{ "type": "Feature", "properties": { "NAME": "Steak House - Gall De Bosc", "LAT": 42.577213, "LON": 1.647906, "CAPACITY": 88, "LANGS": "CA,ES,FR,EN", "STARS": "4", "CLUSTER": null }, "geometry": { "type": "Point", "coordinates": [ 1.647906, 42.577213 ] } },
{ "type": "Feature", "properties": { "NAME": "Trattoria - Riba Escorxada", "LAT": 42.567491, "LON": 1.641342, "CAPACITY": 167, "LANGS": "CA,ES,FR,EN", "STARS": "4", "CLUSTER": null }, "geometry": { "type": "Point", "coordinates": [ 1.641342, 42.567491 ] } },
{ "type": "Feature", "properties": { "NAME": "El Raco Del Garri", "LAT": 42.533489, "LON": 1.579902, "CAPACITY": 30, "LANGS": "CA,ES", "STARS": "4", "CLUSTER": null }, "geometry": { "type": "Point", "coordinates": [ 1.579902, 42.533489 ] } },
{ "type": "Feature", "properties": { "NAME": "AndBurger Zero", "LAT": 42.536265, "LON": 1.583022, "CAPACITY": 300, "LANGS": "CA,ES,EN", "STARS": "4", "CLUSTER": null }, "geometry": { "type": "Point", "coordinates": [ 1.583022, 42.536265 ] } },
{ "type": "Feature", "properties": { "NAME": "El Mallador Del Guillem", "LAT": 42.535706, "LON": 1.583233, "CAPACITY": 100, "LANGS": "CA,ES,FR,EN", "STARS": "4", "CLUSTER": null }, "geometry": { "type": "Point", "coordinates": [ 1.583233, 42.535706 ] } },
{ "type": "Feature", "properties": { "NAME": "Benito", "LAT": 42.533133, "LON": 1.579092, "CAPACITY": 48, "LANGS": "CA,ES,FR", "STARS": "4", "CLUSTER": null }, "geometry": { "type": "Point", "coordinates": [ 1.579092, 42.533133 ] } },
{ "type": "Feature", "properties": { "NAME": "La Cirera", "LAT": 42.534597, "LON": 1.587114, "CAPACITY": 100, "LANGS": "CA,ES,FR,EN", "STARS": "4", "CLUSTER": null }, "geometry": { "type": "Point", "coordinates": [ 1.587114, 42.534597 ] } },
{ "type": "Feature", "properties": { "NAME": "Funicamp", "LAT": 42.535604, "LON": 1.587378, "CAPACITY": 30, "LANGS": "CA,ES,EN", "STARS": "4", "CLUSTER": null }, "geometry": { "type": "Point", "coordinates": [ 1.587378, 42.535604 ] } },
{ "type": "Feature", "properties": { "NAME": "Llac I Cel", "LAT": 42.521617, "LON": 1.571345, "CAPACITY": 40, "LANGS": "CA,ES,FR,EN", "STARS": "4", "CLUSTER": null }, "geometry": { "type": "Point", "coordinates": [ 1.571345, 42.521617 ] } },
{ "type": "Feature", "properties": { "NAME": "Le Bistrot", "LAT": 42.531893, "LON": 1.573620, "CAPACITY": 75, "LANGS": "CA,ES,FR,EN", "STARS": "4", "CLUSTER": null }, "geometry": { "type": "Point", "coordinates": [ 1.57362, 42.531893 ] } },
{ "type": "Feature", "properties": { "NAME": "Montecarlo", "LAT": 42.532212, "LON": 1.573877, "CAPACITY": 80, "LANGS": "CA,ES,FR,EN", "STARS": "4", "CLUSTER": null }, "geometry": { "type": "Point", "coordinates": [ 1.573877, 42.532212 ] } },
{ "type": "Feature", "properties": { "NAME": "El Marselles", "LAT": 42.541226, "LON": 1.732554, "CAPACITY": 30, "LANGS": "CA,ES,FR,EN", "STARS": "4", "CLUSTER": null }, "geometry": { "type": "Point", "coordinates": [ 1.732554, 42.541226 ] } },
{ "type": "Feature", "properties": { "NAME": "La Copa", "LAT": 42.541819, "LON": 1.731825, "CAPACITY": 30, "LANGS": "CA,ES,FR,EN", "STARS": "4", "CLUSTER": null }, "geometry": { "type": "Point", "coordinates": [ 1.731825, 42.541819 ] } },
{ "type": "Feature", "properties": { "NAME": "AndBurger Zero", "LAT": 42.532118, "LON": 1.695904, "CAPACITY": 75, "LANGS": "CA,ES,EN", "STARS": "4", "CLUSTER": null }, "geometry": { "type": "Point", "coordinates": [ 1.695904, 42.532118 ] } },
{ "type": "Feature", "properties": { "NAME": "Restaurant L'Husky", "LAT": 42.540683, "LON": 1.731697, "CAPACITY": 30, "LANGS": "CA,ES,FR,EN", "STARS": "4", "CLUSTER": null }, "geometry": { "type": "Point", "coordinates": [ 1.731697, 42.540683 ] } },
{ "type": "Feature", "properties": { "NAME": "Cims Pas", "LAT": 42.542347, "LON": 1.734306, "CAPACITY": 120, "LANGS": "CA,ES,FR,EN", "STARS": "4", "CLUSTER": null }, "geometry": { "type": "Point", "coordinates": [ 1.734306, 42.542347 ] } },
{ "type": "Feature", "properties": { "NAME": "El Gargantua", "LAT": 42.539477, "LON": 1.733490, "CAPACITY": 120, "LANGS": "CA,ES,FR,EN", "STARS": "4", "CLUSTER": null }, "geometry": { "type": "Point", "coordinates": [ 1.73349, 42.539477 ] } },
{ "type": "Feature", "properties": { "NAME": "La Di Roma", "LAT": 42.540924, "LON": 1.733651, "CAPACITY": 30, "LANGS": "CA,ES,FR,EN", "STARS": "4", "CLUSTER": null }, "geometry": { "type": "Point", "coordinates": [ 1.733651, 42.540924 ] } },
{ "type": "Feature", "properties": { "NAME": "La Gratinada", "LAT": 42.540883, "LON": 1.733738, "CAPACITY": 130, "LANGS": "CA,ES,FR,EN", "STARS": "4", "CLUSTER": null }, "geometry": { "type": "Point", "coordinates": [ 1.733738, 42.540883 ] } },
{ "type": "Feature", "properties": { "NAME": "Catalunya", "LAT": 42.541829, "LON": 1.733308, "CAPACITY": 60, "LANGS": "CA,ES,FR,EN", "STARS": "4", "CLUSTER": null }, "geometry": { "type": "Point", "coordinates": [ 1.733308, 42.541829 ] } },
{ "type": "Feature", "properties": { "NAME": "Apartaments Turistics Manzano", "LAT": 42.541266, "LON": 1.730834, "CAPACITY": 30, "LANGS": "CA,ES,FR,EN", "STARS": "4", "CLUSTER": null }, "geometry": { "type": "Point", "coordinates": [ 1.730834, 42.541266 ] } },
{ "type": "Feature", "properties": { "NAME": "L'Oregon", "LAT": 42.542441, "LON": 1.734434, "CAPACITY": 30, "LANGS": "CA,ES,FR,EN", "STARS": "4", "CLUSTER": null }, "geometry": { "type": "Point", "coordinates": [ 1.734434, 42.542441 ] } },
{ "type": "Feature", "properties": { "NAME": "Cubil", "LAT": 42.532069, "LON": 1.695909, "CAPACITY": 58, "LANGS": "CA,ES,FR,EN", "STARS": "4", "CLUSTER": null }, "geometry": { "type": "Point", "coordinates": [ 1.695909, 42.532069 ] } },
{ "type": "Feature", "properties": { "NAME": "Babot", "LAT": 42.555038, "LON": 1.540418, "CAPACITY": 100, "LANGS": "CA,ES,FR,EN", "STARS": "4", "CLUSTER": null }, "geometry": { "type": "Point", "coordinates": [ 1.540418, 42.555038 ] } },
{ "type": "Feature", "properties": { "NAME": "Hotel Coma", "LAT": 42.555887, "LON": 1.535333, "CAPACITY": 120, "LANGS": "CA,ES,FR,EN", "STARS": "4", "CLUSTER": null }, "geometry": { "type": "Point", "coordinates": [ 1.535333, 42.555887 ] } },
{ "type": "Feature", "properties": { "NAME": "Hotel Gaspa", "LAT": 42.550891, "LON": 1.526034, "CAPACITY": 90, "LANGS": "CA,ES,FR,EN", "STARS": "4", "CLUSTER": null }, "geometry": { "type": "Point", "coordinates": [ 1.526034, 42.550891 ] } },
{ "type": "Feature", "properties": { "NAME": "Cal Tonet", "LAT": 42.573097, "LON": 1.518705, "CAPACITY": 50, "LANGS": "CA,ES,FR", "STARS": "4", "CLUSTER": null }, "geometry": { "type": "Point", "coordinates": [ 1.518705, 42.573097 ] } },
{ "type": "Feature", "properties": { "NAME": "Sucara", "LAT": 42.574139, "LON": 1.518471, "CAPACITY": 50, "LANGS": "CA,ES,FR", "STARS": "4", "CLUSTER": null }, "geometry": { "type": "Point", "coordinates": [ 1.518471, 42.574139 ] } },
{ "type": "Feature", "properties": { "NAME": "Arans", "LAT": 42.582182, "LON": 1.518978, "CAPACITY": 45, "LANGS": "CA,ES,FR", "STARS": "4", "CLUSTER": null }, "geometry": { "type": "Point", "coordinates": [ 1.518978, 42.582182 ] } },
{ "type": "Feature", "properties": { "NAME": "L'Era D'En Jaume", "LAT": 42.596366, "LON": 1.526912, "CAPACITY": 70, "LANGS": null, "STARS": "4", "CLUSTER": null }, "geometry": { "type": "Point", "coordinates": [ 1.526912, 42.596366 ] } },
{ "type": "Feature", "properties": { "NAME": "La Font D'Arans", "LAT": 42.582320, "LON": 1.519289, "CAPACITY": 30, "LANGS": "CA,ES,FR,EN", "STARS": "4", "CLUSTER": null }, "geometry": { "type": "Point", "coordinates": [ 1.519289, 42.58232 ] } },
{ "type": "Feature", "properties": { "NAME": "Polar Base Restaurant", "LAT": 42.574801, "LON": 1.481846, "CAPACITY": 50, "LANGS": "CA,ES,EN", "STARS": "4", "CLUSTER": null }, "geometry": { "type": "Point", "coordinates": [ 1.481846, 42.574801 ] } },
{ "type": "Feature", "properties": { "NAME": "Polar Bar Restaurant", "LAT": 42.567147, "LON": 1.476674, "CAPACITY": 100, "LANGS": "CA,ES,FR,EN", "STARS": "4", "CLUSTER": null }, "geometry": { "type": "Point", "coordinates": [ 1.476674, 42.567147 ] } },
{ "type": "Feature", "properties": { "NAME": "Cerro Otto", "LAT": 42.569840, "LON": 1.487614, "CAPACITY": 48, "LANGS": "CA,ES,FR", "STARS": "4", "CLUSTER": null }, "geometry": { "type": "Point", "coordinates": [ 1.487614, 42.56984 ] } },
{ "type": "Feature", "properties": { "NAME": "Versio Original", "LAT": 42.544765, "LON": 1.514955, "CAPACITY": 30, "LANGS": "CA,ES,FR,EN", "STARS": "4", "CLUSTER": null }, "geometry": { "type": "Point", "coordinates": [ 1.514955, 42.544765 ] } },
{ "type": "Feature", "properties": { "NAME": "Casino", "LAT": 42.540082, "LON": 1.519235, "CAPACITY": 80, "LANGS": "CA,ES,FR", "STARS": "4", "CLUSTER": null }, "geometry": { "type": "Point", "coordinates": [ 1.519235, 42.540082 ] } },
{ "type": "Feature", "properties": { "NAME": "L'Hort De Casa", "LAT": 42.561838, "LON": 1.496402, "CAPACITY": 50, "LANGS": "CA,ES,FR,EN", "STARS": "4", "CLUSTER": null }, "geometry": { "type": "Point", "coordinates": [ 1.496402, 42.561838 ] } },
{ "type": "Feature", "properties": { "NAME": "Cal Silvino", "LAT": 42.545994, "LON": 1.517057, "CAPACITY": 65, "LANGS": "CA,ES,FR", "STARS": "4", "CLUSTER": null }, "geometry": { "type": "Point", "coordinates": [ 1.517057, 42.545994 ] } },
{ "type": "Feature", "properties": { "NAME": "Pizzeria Angelo", "LAT": 42.507983, "LON": 1.534337, "CAPACITY": 100, "LANGS": "CA,ES,FR,EN", "STARS": "4", "CLUSTER": null }, "geometry": { "type": "Point", "coordinates": [ 1.534337, 42.507983 ] } },
{ "type": "Feature", "properties": { "NAME": "Emo - Hotel Palom_", "LAT": 42.565187, "LON": 1.490855, "CAPACITY": 60, "LANGS": "CA,ES,FR,EN", "STARS": "4", "CLUSTER": null }, "geometry": { "type": "Point", "coordinates": [ 1.490855, 42.565187 ] } },
{ "type": "Feature", "properties": { "NAME": "Hostal Palanques", "LAT": 42.545761, "LON": 1.514418, "CAPACITY": 30, "LANGS": "CA,ES,FR,EN", "STARS": "4", "CLUSTER": null }, "geometry": { "type": "Point", "coordinates": [ 1.514418, 42.545761 ] } },
{ "type": "Feature", "properties": { "NAME": "Del Bisset", "LAT": 42.542900, "LON": 1.523355, "CAPACITY": 30, "LANGS": "CA,ES,FR", "STARS": "4", "CLUSTER": null }, "geometry": { "type": "Point", "coordinates": [ 1.523355, 42.5429 ] } },
{ "type": "Feature", "properties": { "NAME": "Borda Raubert", "LAT": 42.559281, "LON": 1.503268, "CAPACITY": 80, "LANGS": "CA,ES,EN", "STARS": "4", "CLUSTER": null }, "geometry": { "type": "Point", "coordinates": [ 1.503268, 42.559281 ] } },
{ "type": "Feature", "properties": { "NAME": "Restaurant El Bosc", "LAT": 42.569790, "LON": 1.487682, "CAPACITY": 60, "LANGS": "CA,ES,FR,EN", "STARS": "4", "CLUSTER": null }, "geometry": { "type": "Point", "coordinates": [ 1.487682, 42.56979 ] } },
{ "type": "Feature", "properties": { "NAME": "El Vesuvi", "LAT": 42.543670, "LON": 1.516758, "CAPACITY": 49, "LANGS": "CA,ES,FR", "STARS": "4", "CLUSTER": null }, "geometry": { "type": "Point", "coordinates": [ 1.516758, 42.54367 ] } },
{ "type": "Feature", "properties": { "NAME": "Cisco's Pub Restaurant", "LAT": 42.572778, "LON": 1.483981, "CAPACITY": 30, "LANGS": "CA,ES,FR,EN", "STARS": "4", "CLUSTER": null }, "geometry": { "type": "Point", "coordinates": [ 1.483981, 42.572778 ] } },
{ "type": "Feature", "properties": { "NAME": "Surf", "LAT": 42.572456, "LON": 1.483010, "CAPACITY": 80, "LANGS": "CA,ES,FR,EN", "STARS": "4", "CLUSTER": null }, "geometry": { "type": "Point", "coordinates": [ 1.48301, 42.572456 ] } },
{ "type": "Feature", "properties": { "NAME": "Moli Dels Fanals", "LAT": 42.533315, "LON": 1.516312, "CAPACITY": 100, "LANGS": "CA,ES,FR,EN", "STARS": "4", "CLUSTER": null }, "geometry": { "type": "Point", "coordinates": [ 1.516312, 42.533315 ] } },
{ "type": "Feature", "properties": { "NAME": "Restaurant Pontones", "LAT": 42.496096, "LON": 1.502635, "CAPACITY": 100, "LANGS": null, "STARS": "4", "CLUSTER": null }, "geometry": { "type": "Point", "coordinates": [ 1.502635, 42.496096 ] } },
{ "type": "Feature", "properties": { "NAME": "Residencia-Restaurant Indalo", "LAT": 42.510045, "LON": 1.531635, "CAPACITY": 50, "LANGS": "CA,ES,FR,EN", "STARS": "4", "CLUSTER": null }, "geometry": { "type": "Point", "coordinates": [ 1.531635, 42.510045 ] } },
{ "type": "Feature", "properties": { "NAME": "Cantina De La Adelita", "LAT": 42.507826, "LON": 1.521954, "CAPACITY": 40, "LANGS": "CA,ES,FR,EN", "STARS": "4", "CLUSTER": null }, "geometry": { "type": "Point", "coordinates": [ 1.521954, 42.507826 ] } },
{ "type": "Feature", "properties": { "NAME": "La Taverna D'En Mallol", "LAT": 42.507010, "LON": 1.531788, "CAPACITY": 45, "LANGS": "CA,ES,FR", "STARS": "4", "CLUSTER": null }, "geometry": { "type": "Point", "coordinates": [ 1.531788, 42.50701 ] } },
{ "type": "Feature", "properties": { "NAME": "Restaurant Borda Poblado", "LAT": 42.490982, "LON": 1.496378, "CAPACITY": 200, "LANGS": "CA,ES,FR", "STARS": "4", "CLUSTER": null }, "geometry": { "type": "Point", "coordinates": [ 1.496378, 42.490982 ] } },
{ "type": "Feature", "properties": { "NAME": "Husa Centric Hotel", "LAT": 42.508339, "LON": 1.531348, "CAPACITY": 110, "LANGS": "CA,ES,FR,EN", "STARS": "4", "CLUSTER": null }, "geometry": { "type": "Point", "coordinates": [ 1.531348, 42.508339 ] } },
{ "type": "Feature", "properties": { "NAME": "(Mercure Andorra) El Jardi", "LAT": 42.507726, "LON": 1.527459, "CAPACITY": 30, "LANGS": "CA,ES,FR,EN", "STARS": "4", "CLUSTER": null }, "geometry": { "type": "Point", "coordinates": [ 1.527459, 42.507726 ] } },
{ "type": "Feature", "properties": { "NAME": "Novotel El Grill", "LAT": 42.507603, "LON": 1.527379, "CAPACITY": 153, "LANGS": "CA,ES,FR,EN", "STARS": "4", "CLUSTER": null }, "geometry": { "type": "Point", "coordinates": [ 1.527379, 42.507603 ] } },
{ "type": "Feature", "properties": { "NAME": "La Borda Pairal 1630", "LAT": 42.505643, "LON": 1.521410, "CAPACITY": 100, "LANGS": "CA,ES,FR,EN", "STARS": "4", "CLUSTER": null }, "geometry": { "type": "Point", "coordinates": [ 1.52141, 42.505643 ] } },
{ "type": "Feature", "properties": { "NAME": "Papanico", "LAT": 42.507580, "LON": 1.521521, "CAPACITY": 90, "LANGS": "CA,ES,FR,EN", "STARS": "4", "CLUSTER": null }, "geometry": { "type": "Point", "coordinates": [ 1.521521, 42.50758 ] } },
{ "type": "Feature", "properties": { "NAME": "Dos Cacadors", "LAT": 42.507524, "LON": 1.522368, "CAPACITY": 50, "LANGS": "CA,ES,FR,EN", "STARS": "4", "CLUSTER": null }, "geometry": { "type": "Point", "coordinates": [ 1.522368, 42.507524 ] } },
{ "type": "Feature", "properties": { "NAME": "L'Arrosseria", "LAT": 42.507168, "LON": 1.521413, "CAPACITY": 30, "LANGS": "CA,ES,FR,EN", "STARS": "4", "CLUSTER": null }, "geometry": { "type": "Point", "coordinates": [ 1.521413, 42.507168 ] } },
{ "type": "Feature", "properties": { "NAME": "El Tall A Taula", "LAT": 42.507123, "LON": 1.531254, "CAPACITY": 100, "LANGS": "CA,ES,FR,EN", "STARS": "4", "CLUSTER": null }, "geometry": { "type": "Point", "coordinates": [ 1.531254, 42.507123 ] } },
{ "type": "Feature", "properties": { "NAME": "Can Benet", "LAT": 42.507261, "LON": 1.520496, "CAPACITY": 33, "LANGS": "CA,ES,FR", "STARS": "4", "CLUSTER": null }, "geometry": { "type": "Point", "coordinates": [ 1.520496, 42.507261 ] } },
{ "type": "Feature", "properties": { "NAME": "AndBurger Zero", "LAT": 42.508173, "LON": 1.522186, "CAPACITY": 30, "LANGS": "CA,ES,FR,EN", "STARS": "4", "CLUSTER": null }, "geometry": { "type": "Point", "coordinates": [ 1.522186, 42.508173 ] } },
{ "type": "Feature", "properties": { "NAME": "Eatalian Republic", "LAT": 42.507040, "LON": 1.526075, "CAPACITY": 30, "LANGS": "CA,ES,FR,EN", "STARS": "4", "CLUSTER": null }, "geometry": { "type": "Point", "coordinates": [ 1.526075, 42.50704 ] } },
{ "type": "Feature", "properties": { "NAME": "Angelo & Friends", "LAT": 42.507336, "LON": 1.533083, "CAPACITY": 100, "LANGS": "CA,ES,FR,EN", "STARS": "4", "CLUSTER": null }, "geometry": { "type": "Point", "coordinates": [ 1.533083, 42.507336 ] } },
{ "type": "Feature", "properties": { "NAME": "La Adelita", "LAT": 42.507764, "LON": 1.521940, "CAPACITY": 35, "LANGS": "CA,ES,FR,EN", "STARS": "4", "CLUSTER": null }, "geometry": { "type": "Point", "coordinates": [ 1.52194, 42.507764 ] } },
{ "type": "Feature", "properties": { "NAME": "Buffet El Grill", "LAT": 42.536523, "LON": 1.491630, "CAPACITY": 285, "LANGS": "CA,ES,FR,EN", "STARS": "4", "CLUSTER": null }, "geometry": { "type": "Point", "coordinates": [ 1.49163, 42.536523 ] } },
{ "type": "Feature", "properties": { "NAME": "1940", "LAT": 42.507414, "LON": 1.519675, "CAPACITY": 100, "LANGS": "CA,ES,FR,EN", "STARS": "4", "CLUSTER": null }, "geometry": { "type": "Point", "coordinates": [ 1.519675, 42.507414 ] } },
{ "type": "Feature", "properties": { "NAME": "Taberna Angel Belmonte", "LAT": 42.507421, "LON": 1.530812, "CAPACITY": 80, "LANGS": "CA,ES,FR,EN", "STARS": "4", "CLUSTER": null }, "geometry": { "type": "Point", "coordinates": [ 1.530812, 42.507421 ] } },
{ "type": "Feature", "properties": { "NAME": "L'Olive (Tivoli)", "LAT": 42.507710, "LON": 1.531911, "CAPACITY": 53, "LANGS": "CA,ES,FR,EN", "STARS": "4", "CLUSTER": null }, "geometry": { "type": "Point", "coordinates": [ 1.531911, 42.50771 ] } },
{ "type": "Feature", "properties": { "NAME": "El Bon Raco", "LAT": 42.495106, "LON": 1.504494, "CAPACITY": 210, "LANGS": "CA,ES,FR,EN", "STARS": "4", "CLUSTER": null }, "geometry": { "type": "Point", "coordinates": [ 1.504494, 42.495106 ] } },
{ "type": "Feature", "properties": { "NAME": "Restaurant Henri", "LAT": 42.507003, "LON": 1.526093, "CAPACITY": 30, "LANGS": "CA,ES,EN", "STARS": "4", "CLUSTER": null }, "geometry": { "type": "Point", "coordinates": [ 1.526093, 42.507003 ] } },
{ "type": "Feature", "properties": { "NAME": "La Piazza", "LAT": 42.507672, "LON": 1.531553, "CAPACITY": 96, "LANGS": "CA,ES,FR,EN", "STARS": "4", "CLUSTER": null }, "geometry": { "type": "Point", "coordinates": [ 1.531553, 42.507672 ] } },
{ "type": "Feature", "properties": { "NAME": "Celler D'En Toni", "LAT": 42.507117, "LON": 1.531842, "CAPACITY": 60, "LANGS": "CA,ES,FR,EN", "STARS": "4", "CLUSTER": null }, "geometry": { "type": "Point", "coordinates": [ 1.531842, 42.507117 ] } },
{ "type": "Feature", "properties": { "NAME": "Pizzeria Primavera", "LAT": 42.507026, "LON": 1.529996, "CAPACITY": 70, "LANGS": "CA,ES,FR,EN", "STARS": "4", "CLUSTER": null }, "geometry": { "type": "Point", "coordinates": [ 1.529996, 42.507026 ] } },
{ "type": "Feature", "properties": { "NAME": "The Family Arms", "LAT": 42.507496, "LON": 1.522937, "CAPACITY": 60, "LANGS": "CA,ES,FR,EN", "STARS": "4", "CLUSTER": null }, "geometry": { "type": "Point", "coordinates": [ 1.522937, 42.507496 ] } },
{ "type": "Feature", "properties": { "NAME": "Restaurant Plaza", "LAT": 42.506317, "LON": 1.521836, "CAPACITY": 30, "LANGS": "CA,ES,FR,EN", "STARS": "4", "CLUSTER": null }, "geometry": { "type": "Point", "coordinates": [ 1.521836, 42.506317 ] } },
{ "type": "Feature", "properties": { "NAME": "Borda Estevet", "LAT": 42.503297, "LON": 1.519555, "CAPACITY": 180, "LANGS": "CA,ES,FR,EN", "STARS": "4", "CLUSTER": null }, "geometry": { "type": "Point", "coordinates": [ 1.519555, 42.503297 ] } },
{ "type": "Feature", "properties": { "NAME": "Plato Restaurant", "LAT": 42.507093, "LON": 1.526778, "CAPACITY": 60, "LANGS": "CA,ES,FR,EN", "STARS": "4", "CLUSTER": null }, "geometry": { "type": "Point", "coordinates": [ 1.526778, 42.507093 ] } },
{ "type": "Feature", "properties": { "NAME": "Andorra Doner Kebab", "LAT": 42.506780, "LON": 1.528792, "CAPACITY": 75, "LANGS": "CA,ES,EN", "STARS": "4", "CLUSTER": null }, "geometry": { "type": "Point", "coordinates": [ 1.528792, 42.50678 ] } },
{ "type": "Feature", "properties": { "NAME": "Restaurant Minim's", "LAT": 42.507200, "LON": 1.520759, "CAPACITY": 36, "LANGS": "CA,ES,FR,EN", "STARS": "4", "CLUSTER": null }, "geometry": { "type": "Point", "coordinates": [ 1.520759, 42.5072 ] } },
{ "type": "Feature", "properties": { "NAME": "Pizzeria Angelo", "LAT": 42.469390, "LON": 1.492588, "CAPACITY": 115, "LANGS": "CA,ES,FR,EN", "STARS": "4", "CLUSTER": null }, "geometry": { "type": "Point", "coordinates": [ 1.492588, 42.46939 ] } },
{ "type": "Feature", "properties": { "NAME": "Coma-Bella", "LAT": 42.446503, "LON": 1.494613, "CAPACITY": 40, "LANGS": "CA,ES,FR,EN", "STARS": "4", "CLUSTER": null }, "geometry": { "type": "Point", "coordinates": [ 1.494613, 42.446503 ] } },
{ "type": "Feature", "properties": { "NAME": "Folch", "LAT": 42.467562, "LON": 1.493623, "CAPACITY": 200, "LANGS": "CA,ES,FR,EN", "STARS": "4", "CLUSTER": null }, "geometry": { "type": "Point", "coordinates": [ 1.493623, 42.467562 ] } },
{ "type": "Feature", "properties": { "NAME": "La Tagliatella", "LAT": 42.508647, "LON": 1.537131, "CAPACITY": 400, "LANGS": "CA,ES,FR,EN", "STARS": "4", "CLUSTER": null }, "geometry": { "type": "Point", "coordinates": [ 1.537131, 42.508647 ] } },
{ "type": "Feature", "properties": { "NAME": "Hotel Mola Park", "LAT": 42.511194, "LON": 1.539690, "CAPACITY": 70, "LANGS": "CA,ES,FR,EN", "STARS": "4", "CLUSTER": null }, "geometry": { "type": "Point", "coordinates": [ 1.53969, 42.511194 ] } },
{ "type": "Feature", "properties": { "NAME": "Restaurant Tic Tapa", "LAT": 42.508367, "LON": 1.535897, "CAPACITY": 100, "LANGS": "CA,ES,FR,EN", "STARS": "4", "CLUSTER": null }, "geometry": { "type": "Point", "coordinates": [ 1.535897, 42.508367 ] } },
{ "type": "Feature", "properties": { "NAME": "La Nova Forquilla", "LAT": 42.507793, "LON": 1.535940, "CAPACITY": 55, "LANGS": "CA,ES,FR", "STARS": "4", "CLUSTER": null }, "geometry": { "type": "Point", "coordinates": [ 1.53594, 42.507793 ] } },
{ "type": "Feature", "properties": { "NAME": "El Greco", "LAT": 42.507943, "LON": 1.535511, "CAPACITY": 60, "LANGS": "CA,ES,FR", "STARS": "4", "CLUSTER": null }, "geometry": { "type": "Point", "coordinates": [ 1.535511, 42.507943 ] } },
{ "type": "Feature", "properties": { "NAME": "Espel", "LAT": 42.510610, "LON": 1.542040, "CAPACITY": 180, "LANGS": "CA,ES,FR,EN", "STARS": "4", "CLUSTER": null }, "geometry": { "type": "Point", "coordinates": [ 1.54204, 42.51061 ] } },
{ "type": "Feature", "properties": { "NAME": "Restaurant cafeteria Les Closes", "LAT": 42.508663, "LON": 1.536895, "CAPACITY": 106, "LANGS": "CA,ES,FR,EN", "STARS": "4", "CLUSTER": null }, "geometry": { "type": "Point", "coordinates": [ 1.536895, 42.508663 ] } },
{ "type": "Feature", "properties": { "NAME": "Restaurant I_", "LAT": 42.511270, "LON": 1.537525, "CAPACITY": 40, "LANGS": "CA,ES,FR,EN", "STARS": "4", "CLUSTER": null }, "geometry": { "type": "Point", "coordinates": [ 1.537525, 42.51127 ] } },
{ "type": "Feature", "properties": { "NAME": "Pizzeria Angelo", "LAT": 42.507730, "LON": 1.534261, "CAPACITY": 160, "LANGS": "CA,ES,FR,EN", "STARS": "4", "CLUSTER": null }, "geometry": { "type": "Point", "coordinates": [ 1.534261, 42.50773 ] } },
{ "type": "Feature", "properties": { "NAME": "AndBurger Zero", "LAT": 42.509106, "LON": 1.537873, "CAPACITY": 70, "LANGS": "CA,ES,FR,EN", "STARS": "4", "CLUSTER": null }, "geometry": { "type": "Point", "coordinates": [ 1.537873, 42.509106 ] } },
{ "type": "Feature", "properties": { "NAME": "Restaurant Mussol", "LAT": 42.510464, "LON": 1.541187, "CAPACITY": 80, "LANGS": "CA,ES,FR,EN", "STARS": "4", "CLUSTER": null }, "geometry": { "type": "Point", "coordinates": [ 1.541187, 42.510464 ] } },
{ "type": "Feature", "properties": { "NAME": "Pizzeria La Plazzeta", "LAT": 42.508472, "LON": 1.536831, "CAPACITY": 102, "LANGS": "CA,ES,FR,EN", "STARS": "4", "CLUSTER": null }, "geometry": { "type": "Point", "coordinates": [ 1.536831, 42.508472 ] } },
{ "type": "Feature", "properties": { "NAME": "Restaurant Bar Xup-Xup", "LAT": 42.508189, "LON": 1.539191, "CAPACITY": 120, "LANGS": "CA,ES,FR,EN", "STARS": "4", "CLUSTER": null }, "geometry": { "type": "Point", "coordinates": [ 1.539191, 42.508189 ] } },
{ "type": "Feature", "properties": { "NAME": "Cesar Ii", "LAT": 42.509161, "LON": 1.541820, "CAPACITY": 30, "LANGS": "CA,ES,FR", "STARS": "4", "CLUSTER": null }, "geometry": { "type": "Point", "coordinates": [ 1.54182, 42.509161 ] } },
{ "type": "Feature", "properties": { "NAME": "Restaurant Don Denis", "LAT": 42.508386, "LON": 1.536407, "CAPACITY": 400, "LANGS": "CA,ES,FR,EN", "STARS": "4", "CLUSTER": null }, "geometry": { "type": "Point", "coordinates": [ 1.536407, 42.508386 ] } },
{ "type": "Feature", "properties": { "NAME": "Restaurant L'Entrecôte", "LAT": 42.509248, "LON": 1.539443, "CAPACITY": 60, "LANGS": "CA,ES,FR,EN", "STARS": "4", "CLUSTER": null }, "geometry": { "type": "Point", "coordinates": [ 1.539443, 42.509248 ] } },
{ "type": "Feature", "properties": { "NAME": "El Rebost Iberic", "LAT": 42.508583, "LON": 1.535268, "CAPACITY": 100, "LANGS": "CA,ES,FR,EN", "STARS": "4", "CLUSTER": null }, "geometry": { "type": "Point", "coordinates": [ 1.535268, 42.508583 ] } },
{ "type": "Feature", "properties": { "NAME": "Prat Del Roure", "LAT": 42.510882, "LON": 1.535988, "CAPACITY": 100, "LANGS": "CA,ES,FR,EN", "STARS": "4", "CLUSTER": null }, "geometry": { "type": "Point", "coordinates": [ 1.535988, 42.510882 ] } },
{ "type": "Feature", "properties": { "NAME": "Cheese's Art", "LAT": 42.508647, "LON": 1.537979, "CAPACITY": 100, "LANGS": "CA,ES,FR", "STARS": "4", "CLUSTER": null }, "geometry": { "type": "Point", "coordinates": [ 1.537979, 42.508647 ] } },
{ "type": "Feature", "properties": { "NAME": "Restaurant Eureka", "LAT": 42.508726, "LON": 1.540189, "CAPACITY": 100, "LANGS": "CA,ES,FR", "STARS": "4", "CLUSTER": null }, "geometry": { "type": "Point", "coordinates": [ 1.540189, 42.508726 ] } },
{ "type": "Feature", "properties": { "NAME": "Restaurant Casa Canut", "LAT": 42.508568, "LON": 1.535704, "CAPACITY": 30, "LANGS": "CA,ES,FR,EN", "STARS": "4", "CLUSTER": null }, "geometry": { "type": "Point", "coordinates": [ 1.535704, 42.508568 ] } },
{ "type": "Feature", "properties": { "NAME": "Memfis (Delfos)", "LAT": 42.508082, "LON": 1.538413, "CAPACITY": 250, "LANGS": "CA,ES,FR,EN", "STARS": "4", "CLUSTER": null }, "geometry": { "type": "Point", "coordinates": [ 1.538413, 42.508082 ] } },
{ "type": "Feature", "properties": { "NAME": "Comtes D'Urgell", "LAT": 42.510704, "LON": 1.541176, "CAPACITY": 250, "LANGS": "CA,ES,FR,EN", "STARS": "4", "CLUSTER": null }, "geometry": { "type": "Point", "coordinates": [ 1.541176, 42.510704 ] } },
{ "type": "Feature", "properties": { "NAME": "Arlequi Pizza", "LAT": 42.565819, "LON": 1.597529, "CAPACITY": 28, "LANGS": "CA,ES,FR,EN", "STARS": "3.5", "CLUSTER": null }, "geometry": { "type": "Point", "coordinates": [ 1.597529, 42.565819 ] } },
{ "type": "Feature", "properties": { "NAME": "Arrels", "LAT": 42.575878, "LON": 1.670183, "CAPACITY": 100, "LANGS": "CA,ES,FR,EN", "STARS": "3.5", "CLUSTER": null }, "geometry": { "type": "Point", "coordinates": [ 1.670183, 42.575878 ] } },
{ "type": "Feature", "properties": { "NAME": "Restaurant Fontanella", "LAT": 42.576731, "LON": 1.667105, "CAPACITY": 80, "LANGS": "CA,ES,FR,EN", "STARS": "3.5", "CLUSTER": null }, "geometry": { "type": "Point", "coordinates": [ 1.667105, 42.576731 ] } },
{ "type": "Feature", "properties": { "NAME": "Terrassa Del Solà", "LAT": 42.566261, "LON": 1.598771, "CAPACITY": 180, "LANGS": "CA,ES,FR,EN", "STARS": "3.5", "CLUSTER": null }, "geometry": { "type": "Point", "coordinates": [ 1.598771, 42.566261 ] } },
{ "type": "Feature", "properties": { "NAME": "Pizzeria La Mosquera", "LAT": 42.536501, "LON": 1.583169, "CAPACITY": 30, "LANGS": "CA,ES,FR,EN", "STARS": "3.5", "CLUSTER": null }, "geometry": { "type": "Point", "coordinates": [ 1.583169, 42.536501 ] } },
{ "type": "Feature", "properties": { "NAME": "Mc Donald's", "LAT": 42.543509, "LON": 1.732031, "CAPACITY": 210, "LANGS": "CA,ES,FR,EN", "STARS": "3.5", "CLUSTER": null }, "geometry": { "type": "Point", "coordinates": [ 1.732031, 42.543509 ] } },
{ "type": "Feature", "properties": { "NAME": "Restaurant De Les Neus", "LAT": 42.543192, "LON": 1.734177, "CAPACITY": 50, "LANGS": "CA,ES,FR,EN", "STARS": "3.5", "CLUSTER": null }, "geometry": { "type": "Point", "coordinates": [ 1.734177, 42.543192 ] } },
{ "type": "Feature", "properties": { "NAME": "Parma", "LAT": 42.543390, "LON": 1.732728, "CAPACITY": 40, "LANGS": "CA,ES,FR,EN", "STARS": "3.5", "CLUSTER": null }, "geometry": { "type": "Point", "coordinates": [ 1.732728, 42.54339 ] } },
{ "type": "Feature", "properties": { "NAME": "Pista Negra", "LAT": 42.543173, "LON": 1.731854, "CAPACITY": 30, "LANGS": "CA,ES,FR,EN", "STARS": "3.5", "CLUSTER": null }, "geometry": { "type": "Point", "coordinates": [ 1.731854, 42.543173 ] } },
{ "type": "Feature", "properties": { "NAME": "Bar Armengol Casa Leon", "LAT": 42.556722, "LON": 1.533226, "CAPACITY": 30, "LANGS": "CA,ES,FR,EN", "STARS": "3.5", "CLUSTER": null }, "geometry": { "type": "Point", "coordinates": [ 1.533226, 42.556722 ] } },
{ "type": "Feature", "properties": { "NAME": "Topic", "LAT": 42.556511, "LON": 1.534575, "CAPACITY": 140, "LANGS": "CA,ES,FR,EN", "STARS": "3.5", "CLUSTER": null }, "geometry": { "type": "Point", "coordinates": [ 1.534575, 42.556511 ] } },
{ "type": "Feature", "properties": { "NAME": "Santa Barbara", "LAT": 42.556876, "LON": 1.533574, "CAPACITY": 40, "LANGS": "CA,ES,FR,EN", "STARS": "3.5", "CLUSTER": null }, "geometry": { "type": "Point", "coordinates": [ 1.533574, 42.556876 ] } },
{ "type": "Feature", "properties": { "NAME": "Camping Borda D'Ansalonga", "LAT": 42.568289, "LON": 1.521907, "CAPACITY": 40, "LANGS": null, "STARS": "3.5", "CLUSTER": null }, "geometry": { "type": "Point", "coordinates": [ 1.521907, 42.568289 ] } },
{ "type": "Feature", "properties": { "NAME": "La Cabana", "LAT": 42.552862, "LON": 1.533156, "CAPACITY": 50, "LANGS": "CA,ES,FR,EN", "STARS": "3.5", "CLUSTER": null }, "geometry": { "type": "Point", "coordinates": [ 1.533156, 42.552862 ] } },
{ "type": "Feature", "properties": { "NAME": "Taverna Comapedrosa \/ Comapedrosa", "LAT": 42.571924, "LON": 1.483629, "CAPACITY": 30, "LANGS": "CA,ES,FR,EN", "STARS": "3.5", "CLUSTER": null }, "geometry": { "type": "Point", "coordinates": [ 1.483629, 42.571924 ] } },
{ "type": "Feature", "properties": { "NAME": "Abba Xalet Suites Hotel", "LAT": 42.532591, "LON": 1.518441, "CAPACITY": 150, "LANGS": "CA,ES,FR,EN", "STARS": "3.5", "CLUSTER": null }, "geometry": { "type": "Point", "coordinates": [ 1.518441, 42.532591 ] } },
{ "type": "Feature", "properties": { "NAME": "Pla De La Cot Ski Lounge", "LAT": 42.530376, "LON": 1.473590, "CAPACITY": 300, "LANGS": "CA,ES,FR,EN", "STARS": "3.5", "CLUSTER": null }, "geometry": { "type": "Point", "coordinates": [ 1.47359, 42.530376 ] } },
{ "type": "Feature", "properties": { "NAME": "Borda De L'Avi", "LAT": 42.551515, "LON": 1.510363, "CAPACITY": 200, "LANGS": "CA,ES,FR,EN", "STARS": "3.5", "CLUSTER": null }, "geometry": { "type": "Point", "coordinates": [ 1.510363, 42.551515 ] } },
{ "type": "Feature", "properties": { "NAME": "La Torrada", "LAT": 42.553057, "LON": 1.487929, "CAPACITY": 40, "LANGS": null, "STARS": "3.5", "CLUSTER": null }, "geometry": { "type": "Point", "coordinates": [ 1.487929, 42.553057 ] } },
{ "type": "Feature", "properties": { "NAME": "Restaurant Del Prat Gran", "LAT": 42.548338, "LON": 1.512991, "CAPACITY": 110, "LANGS": "CA,ES,FR,EN", "STARS": "3.5", "CLUSTER": null }, "geometry": { "type": "Point", "coordinates": [ 1.512991, 42.548338 ] } },
{ "type": "Feature", "properties": { "NAME": "Don Pernil", "LAT": 42.494932, "LON": 1.497703, "CAPACITY": 140, "LANGS": "CA,ES,FR,EN", "STARS": "3.5", "CLUSTER": null }, "geometry": { "type": "Point", "coordinates": [ 1.497703, 42.494932 ] } },
{ "type": "Feature", "properties": { "NAME": "Casa Teva", "LAT": 42.500334, "LON": 1.508026, "CAPACITY": 60, "LANGS": "CA,ES,FR", "STARS": "3.5", "CLUSTER": null }, "geometry": { "type": "Point", "coordinates": [ 1.508026, 42.500334 ] } },
{ "type": "Feature", "properties": { "NAME": "120", "LAT": 42.508394, "LON": 1.533402, "CAPACITY": 200, "LANGS": "CA,ES,FR,EN", "STARS": "3.5", "CLUSTER": null }, "geometry": { "type": "Point", "coordinates": [ 1.533402, 42.508394 ] } },
{ "type": "Feature", "properties": { "NAME": "Sant Jordi", "LAT": 42.506434, "LON": 1.518407, "CAPACITY": 60, "LANGS": "CA,ES,FR,EN", "STARS": "3.5", "CLUSTER": null }, "geometry": { "type": "Point", "coordinates": [ 1.518407, 42.506434 ] } },
{ "type": "Feature", "properties": { "NAME": "Mc Donald's", "LAT": 42.507979, "LON": 1.524892, "CAPACITY": 160, "LANGS": "CA,ES,FR", "STARS": "3.5", "CLUSTER": null }, "geometry": { "type": "Point", "coordinates": [ 1.524892, 42.507979 ] } },
{ "type": "Feature", "properties": { "NAME": "Mc Donald's", "LAT": 42.508521, "LON": 1.533526, "CAPACITY": 120, "LANGS": "CA,ES,FR", "STARS": "3.5", "CLUSTER": null }, "geometry": { "type": "Point", "coordinates": [ 1.533526, 42.508521 ] } },
{ "type": "Feature", "properties": { "NAME": "Mc Donald's", "LAT": 42.505136, "LON": 1.528076, "CAPACITY": 200, "LANGS": "CA,ES,FR", "STARS": "3.5", "CLUSTER": null }, "geometry": { "type": "Point", "coordinates": [ 1.528076, 42.505136 ] } },
{ "type": "Feature", "properties": { "NAME": "El Japo", "LAT": 42.508907, "LON": 1.528738, "CAPACITY": 36, "LANGS": "CA,ES,FR,EN", "STARS": "3.5", "CLUSTER": null }, "geometry": { "type": "Point", "coordinates": [ 1.528738, 42.508907 ] } },
{ "type": "Feature", "properties": { "NAME": "Viena", "LAT": 42.495343, "LON": 1.505299, "CAPACITY": 30, "LANGS": "CA,ES,FR,EN", "STARS": "3.5", "CLUSTER": null }, "geometry": { "type": "Point", "coordinates": [ 1.505299, 42.495343 ] } },
{ "type": "Feature", "properties": { "NAME": "Casa Teresa", "LAT": 42.507955, "LON": 1.528832, "CAPACITY": 125, "LANGS": "CA,ES,FR", "STARS": "3.5", "CLUSTER": null }, "geometry": { "type": "Point", "coordinates": [ 1.528832, 42.507955 ] } },
{ "type": "Feature", "properties": { "NAME": "Sushi & Gong", "LAT": 42.508037, "LON": 1.522708, "CAPACITY": 30, "LANGS": "CA,ES,EN", "STARS": "3.5", "CLUSTER": null }, "geometry": { "type": "Point", "coordinates": [ 1.522708, 42.508037 ] } },
{ "type": "Feature", "properties": { "NAME": "La Boheme", "LAT": 42.507864, "LON": 1.523602, "CAPACITY": 40, "LANGS": "CA,ES,FR,EN", "STARS": "3.5", "CLUSTER": null }, "geometry": { "type": "Point", "coordinates": [ 1.523602, 42.507864 ] } },
{ "type": "Feature", "properties": { "NAME": "El Refugi Alpi", "LAT": 42.508964, "LON": 1.529095, "CAPACITY": 126, "LANGS": "CA,ES,FR,EN", "STARS": "3.5", "CLUSTER": null }, "geometry": { "type": "Point", "coordinates": [ 1.529095, 42.508964 ] } },
{ "type": "Feature", "properties": { "NAME": "El Faisa", "LAT": 42.507908, "LON": 1.522285, "CAPACITY": 28, "LANGS": "CA,ES,FR", "STARS": "3.5", "CLUSTER": null }, "geometry": { "type": "Point", "coordinates": [ 1.522285, 42.507908 ] } },
{ "type": "Feature", "properties": { "NAME": "Hotel Restaurant de L'Isard", "LAT": 42.508060, "LON": 1.525206, "CAPACITY": 100, "LANGS": "CA,ES,FR,EN", "STARS": "3.5", "CLUSTER": null }, "geometry": { "type": "Point", "coordinates": [ 1.525206, 42.50806 ] } },
{ "type": "Feature", "properties": { "NAME": "Els Teus Sentits", "LAT": 42.507216, "LON": 1.520719, "CAPACITY": 36, "LANGS": "CA,ES,FR,EN", "STARS": "3.5", "CLUSTER": null }, "geometry": { "type": "Point", "coordinates": [ 1.520719, 42.507216 ] } },
{ "type": "Feature", "properties": { "NAME": "Self-Service Cafeteria Cca", "LAT": 42.508230, "LON": 1.530340, "CAPACITY": 30, "LANGS": "CA,ES,FR,EN", "STARS": "3.5", "CLUSTER": null }, "geometry": { "type": "Point", "coordinates": [ 1.53034, 42.50823 ] } },
{ "type": "Feature", "properties": { "NAME": "Frankfurt Pedralbes", "LAT": 42.507828, "LON": 1.532662, "CAPACITY": 30, "LANGS": "CA,ES,EN", "STARS": "3.5", "CLUSTER": null }, "geometry": { "type": "Point", "coordinates": [ 1.532662, 42.507828 ] } },
{ "type": "Feature", "properties": { "NAME": "Bar Els Manyos", "LAT": 42.505169, "LON": 1.526410, "CAPACITY": 30, "LANGS": "CA,ES,FR", "STARS": "3.5", "CLUSTER": null }, "geometry": { "type": "Point", "coordinates": [ 1.52641, 42.505169 ] } },
{ "type": "Feature", "properties": { "NAME": "Andorra Center", "LAT": 42.507671, "LON": 1.520488, "CAPACITY": 240, "LANGS": "CA,ES,FR,EN", "STARS": "3.5", "CLUSTER": null }, "geometry": { "type": "Point", "coordinates": [ 1.520488, 42.507671 ] } },
{ "type": "Feature", "properties": { "NAME": "Restaurant Barcelona", "LAT": 42.476344, "LON": 1.490090, "CAPACITY": 40, "LANGS": "CA,ES,FR,EN", "STARS": "3.5", "CLUSTER": null }, "geometry": { "type": "Point", "coordinates": [ 1.49009, 42.476344 ] } },
{ "type": "Feature", "properties": { "NAME": "Borda L'Arena", "LAT": 42.477510, "LON": 1.472608, "CAPACITY": 48, "LANGS": "CA,ES,FR", "STARS": "3.5", "CLUSTER": null }, "geometry": { "type": "Point", "coordinates": [ 1.472608, 42.47751 ] } },
{ "type": "Feature", "properties": { "NAME": "Pizzeria Trovi", "LAT": 42.448035, "LON": 1.481756, "CAPACITY": 80, "LANGS": "CA,ES,FR", "STARS": "3.5", "CLUSTER": null }, "geometry": { "type": "Point", "coordinates": [ 1.481756, 42.448035 ] } },
{ "type": "Feature", "properties": { "NAME": "Sant Eloi", "LAT": 42.458155, "LON": 1.487768, "CAPACITY": 160, "LANGS": "CA,ES,FR,EN", "STARS": "3.5", "CLUSTER": null }, "geometry": { "type": "Point", "coordinates": [ 1.487768, 42.458155 ] } },
{ "type": "Feature", "properties": { "NAME": "Mc Donalds", "LAT": 42.459830, "LON": 1.489063, "CAPACITY": 215, "LANGS": "CA,ES,FR", "STARS": "3.5", "CLUSTER": null }, "geometry": { "type": "Point", "coordinates": [ 1.489063, 42.45983 ] } },
{ "type": "Feature", "properties": { "NAME": "Restaurant Peralba", "LAT": 42.476229, "LON": 1.488716, "CAPACITY": 40, "LANGS": "CA,ES,FR,EN", "STARS": "3.5", "CLUSTER": null }, "geometry": { "type": "Point", "coordinates": [ 1.488716, 42.476229 ] } },
{ "type": "Feature", "properties": { "NAME": "Cosmos", "LAT": 42.510118, "LON": 1.538210, "CAPACITY": 90, "LANGS": "CA,ES,FR,EN", "STARS": "3.5", "CLUSTER": null }, "geometry": { "type": "Point", "coordinates": [ 1.53821, 42.510118 ] } },
{ "type": "Feature", "properties": { "NAME": "Els Jardins", "LAT": 42.510973, "LON": 1.540436, "CAPACITY": 60, "LANGS": "CA,ES,FR,EN", "STARS": "3.5", "CLUSTER": null }, "geometry": { "type": "Point", "coordinates": [ 1.540436, 42.510973 ] } },
{ "type": "Feature", "properties": { "NAME": "Hong Kong", "LAT": 42.508889, "LON": 1.536718, "CAPACITY": 50, "LANGS": "CA,ES,FR,EN", "STARS": "3.5", "CLUSTER": null }, "geometry": { "type": "Point", "coordinates": [ 1.536718, 42.508889 ] } },
{ "type": "Feature", "properties": { "NAME": "Restaurant Deimos", "LAT": 42.511597, "LON": 1.537338, "CAPACITY": 120, "LANGS": "CA,ES,FR,EN", "STARS": "3.5", "CLUSTER": null }, "geometry": { "type": "Point", "coordinates": [ 1.537338, 42.511597 ] } },
{ "type": "Feature", "properties": { "NAME": "Panorama", "LAT": 42.507780, "LON": 1.540967, "CAPACITY": 200, "LANGS": "CA,ES,FR,EN", "STARS": "3.5", "CLUSTER": null }, "geometry": { "type": "Point", "coordinates": [ 1.540967, 42.50778 ] } },
{ "type": "Feature", "properties": { "NAME": "Restaurant Jaleo", "LAT": 42.511093, "LON": 1.538424, "CAPACITY": 60, "LANGS": "CA,ES,FR,EN", "STARS": "3.5", "CLUSTER": null }, "geometry": { "type": "Point", "coordinates": [ 1.538424, 42.511093 ] } },
{ "type": "Feature", "properties": { "NAME": "Pizza Roma", "LAT": 42.508632, "LON": 1.535267, "CAPACITY": 116, "LANGS": "CA,ES,FR,EN", "STARS": "3.5", "CLUSTER": null }, "geometry": { "type": "Point", "coordinates": [ 1.535267, 42.508632 ] } },
{ "type": "Feature", "properties": { "NAME": "Restaurant Kronos (Fenix Hotel)", "LAT": 42.509553, "LON": 1.539615, "CAPACITY": 120, "LANGS": "CA,ES,FR,EN", "STARS": "3.5", "CLUSTER": null }, "geometry": { "type": "Point", "coordinates": [ 1.539615, 42.509553 ] } },
{ "type": "Feature", "properties": { "NAME": "Casa Del Bistec", "LAT": 42.508560, "LON": 1.535983, "CAPACITY": 57, "LANGS": "CA,ES,FR,EN", "STARS": "3.5", "CLUSTER": null }, "geometry": { "type": "Point", "coordinates": [ 1.535983, 42.50856 ] } },
{ "type": "Feature", "properties": { "NAME": "El Xalet", "LAT": 42.572907, "LON": 1.483916, "CAPACITY": 35, "LANGS": "CA,ES,FR", "STARS": "3", "CLUSTER": null }, "geometry": { "type": "Point", "coordinates": [ 1.483916, 42.572907 ] } },
{ "type": "Feature", "properties": { "NAME": "Roc De Sant Miquel", "LAT": 42.580973, "LON": 1.663871, "CAPACITY": 30, "LANGS": "CA,ES,FR,EN", "STARS": "3", "CLUSTER": null }, "geometry": { "type": "Point", "coordinates": [ 1.663871, 42.580973 ] } },
{ "type": "Feature", "properties": { "NAME": "La Relliscada", "LAT": 42.565852, "LON": 1.597959, "CAPACITY": 30, "LANGS": "CA,ES,FR,EN", "STARS": "3", "CLUSTER": null }, "geometry": { "type": "Point", "coordinates": [ 1.597959, 42.565852 ] } },
{ "type": "Feature", "properties": { "NAME": "Pere D'Urg", "LAT": 42.534864, "LON": 1.580288, "CAPACITY": 130, "LANGS": "CA,ES,FR", "STARS": "3", "CLUSTER": null }, "geometry": { "type": "Point", "coordinates": [ 1.580288, 42.534864 ] } },
{ "type": "Feature", "properties": { "NAME": "Paris", "LAT": 42.535896, "LON": 1.581838, "CAPACITY": 60, "LANGS": "CA,ES", "STARS": "3", "CLUSTER": null }, "geometry": { "type": "Point", "coordinates": [ 1.581838, 42.535896 ] } },
{ "type": "Feature", "properties": { "NAME": "Cafe De La Residencia", "LAT": 42.543161, "LON": 1.731833, "CAPACITY": 70, "LANGS": null, "STARS": "3", "CLUSTER": null }, "geometry": { "type": "Point", "coordinates": [ 1.731833, 42.543161 ] } },
{ "type": "Feature", "properties": { "NAME": "El Carlit de Neu", "LAT": 42.540710, "LON": 1.733775, "CAPACITY": 80, "LANGS": "CA,ES,FR,EN", "STARS": "3", "CLUSTER": null }, "geometry": { "type": "Point", "coordinates": [ 1.733775, 42.54071 ] } },
{ "type": "Feature", "properties": { "NAME": "La Borda", "LAT": 42.573436, "LON": 1.477747, "CAPACITY": 30, "LANGS": "CA,ES,FR,EN", "STARS": "3", "CLUSTER": null }, "geometry": { "type": "Point", "coordinates": [ 1.477747, 42.573436 ] } },
{ "type": "Feature", "properties": { "NAME": "El Piolet", "LAT": 42.525820, "LON": 1.698304, "CAPACITY": 180, "LANGS": "CA,ES,FR,EN", "STARS": "3", "CLUSTER": null }, "geometry": { "type": "Point", "coordinates": [ 1.698304, 42.52582 ] } },
{ "type": "Feature", "properties": { "NAME": "Burger King", "LAT": 42.541390, "LON": 1.732289, "CAPACITY": 30, "LANGS": null, "STARS": "3", "CLUSTER": null }, "geometry": { "type": "Point", "coordinates": [ 1.732289, 42.54139 ] } },
{ "type": "Feature", "properties": { "NAME": "Pradet", "LAT": 42.619096, "LON": 1.538811, "CAPACITY": 30, "LANGS": null, "STARS": "3", "CLUSTER": null }, "geometry": { "type": "Point", "coordinates": [ 1.538811, 42.619096 ] } },
{ "type": "Feature", "properties": { "NAME": "Erts", "LAT": 42.561651, "LON": 1.497772, "CAPACITY": 60, "LANGS": "CA,ES,FR,EN", "STARS": "3", "CLUSTER": null }, "geometry": { "type": "Point", "coordinates": [ 1.497772, 42.561651 ] } },
{ "type": "Feature", "properties": { "NAME": "El Raco De La Fina", "LAT": 42.547239, "LON": 1.514697, "CAPACITY": 75, "LANGS": "CA,ES,FR,EN", "STARS": "3", "CLUSTER": null }, "geometry": { "type": "Point", "coordinates": [ 1.514697, 42.547239 ] } },
{ "type": "Feature", "properties": { "NAME": "Delizioso", "LAT": 42.532971, "LON": 1.524096, "CAPACITY": 80, "LANGS": "CA,ES,FR,EN", "STARS": "3", "CLUSTER": null }, "geometry": { "type": "Point", "coordinates": [ 1.524096, 42.532971 ] } },
{ "type": "Feature", "properties": { "NAME": "Bar Restaurant La Nogreda", "LAT": 42.500946, "LON": 1.519072, "CAPACITY": 35, "LANGS": "CA,ES", "STARS": "3", "CLUSTER": null }, "geometry": { "type": "Point", "coordinates": [ 1.519072, 42.500946 ] } },
{ "type": "Feature", "properties": { "NAME": "Mama Maria", "LAT": 42.508070, "LON": 1.524965, "CAPACITY": 200, "LANGS": "CA,ES,FR,EN", "STARS": "3", "CLUSTER": null }, "geometry": { "type": "Point", "coordinates": [ 1.524965, 42.50807 ] } },
{ "type": "Feature", "properties": { "NAME": "Burger King", "LAT": 42.506132, "LON": 1.532367, "CAPACITY": 260, "LANGS": "CA,ES,FR,EN", "STARS": "3", "CLUSTER": null }, "geometry": { "type": "Point", "coordinates": [ 1.532367, 42.506132 ] } },
{ "type": "Feature", "properties": { "NAME": "Diplomatic", "LAT": 42.505386, "LON": 1.528712, "CAPACITY": 85, "LANGS": "CA,ES,FR,EN", "STARS": "3", "CLUSTER": null }, "geometry": { "type": "Point", "coordinates": [ 1.528712, 42.505386 ] } },
{ "type": "Feature", "properties": { "NAME": "Buda Espai", "LAT": 42.500630, "LON": 1.512837, "CAPACITY": 110, "LANGS": "CA,ES,FR,EN", "STARS": "3", "CLUSTER": null }, "geometry": { "type": "Point", "coordinates": [ 1.512837, 42.50063 ] } },
{ "type": "Feature", "properties": { "NAME": "Lizarran", "LAT": 42.508410, "LON": 1.529953, "CAPACITY": 50, "LANGS": "CA,ES,FR,EN", "STARS": "3", "CLUSTER": null }, "geometry": { "type": "Point", "coordinates": [ 1.529953, 42.50841 ] } },
{ "type": "Feature", "properties": { "NAME": "Cervol", "LAT": 42.503081, "LON": 1.513228, "CAPACITY": 20, "LANGS": "CA,ES,FR,EN", "STARS": "3", "CLUSTER": null }, "geometry": { "type": "Point", "coordinates": [ 1.513228, 42.503081 ] } },
{ "type": "Feature", "properties": { "NAME": "La Quadra", "LAT": 42.476378, "LON": 1.488862, "CAPACITY": 180, "LANGS": "CA", "STARS": "3", "CLUSTER": null }, "geometry": { "type": "Point", "coordinates": [ 1.488862, 42.476378 ] } },
{ "type": "Feature", "properties": { "NAME": "La Taverna D'Excalibur", "LAT": 42.508742, "LON": 1.540210, "CAPACITY": 120, "LANGS": "CA,ES,FR,EN", "STARS": "3", "CLUSTER": null }, "geometry": { "type": "Point", "coordinates": [ 1.54021, 42.508742 ] } },
{ "type": "Feature", "properties": { "NAME": "La Taverna Italiana", "LAT": 42.508691, "LON": 1.540060, "CAPACITY": 150, "LANGS": "CA,ES,FR,EN", "STARS": "3", "CLUSTER": null }, "geometry": { "type": "Point", "coordinates": [ 1.54006, 42.508691 ] } },
{ "type": "Feature", "properties": { "NAME": "R�stic Chic", "LAT": 42.507906, "LON": 1.534272, "CAPACITY": 32, "LANGS": "CA,ES,FR", "STARS": "3", "CLUSTER": null }, "geometry": { "type": "Point", "coordinates": [ 1.534272, 42.507906 ] } },
{ "type": "Feature", "properties": { "NAME": "Oriol", "LAT": 42.509193, "LON": 1.539770, "CAPACITY": 50, "LANGS": "CA,ES,FR,EN", "STARS": "3", "CLUSTER": null }, "geometry": { "type": "Point", "coordinates": [ 1.53977, 42.509193 ] } },
{ "type": "Feature", "properties": { "NAME": "Les Barques", "LAT": 42.508527, "LON": 1.535892, "CAPACITY": 100, "LANGS": "CA,ES,FR,EN", "STARS": "3", "CLUSTER": null }, "geometry": { "type": "Point", "coordinates": [ 1.535892, 42.508527 ] } },
{ "type": "Feature", "properties": { "NAME": "La Tapad'Era", "LAT": 42.508117, "LON": 1.538435, "CAPACITY": 40, "LANGS": "CA,ES,FR,EN", "STARS": "3", "CLUSTER": null }, "geometry": { "type": "Point", "coordinates": [ 1.538435, 42.508117 ] } },
{ "type": "Feature", "properties": { "NAME": "Oros", "LAT": 42.536339, "LON": 1.582332, "CAPACITY": 30, "LANGS": "CA,ES,FR,EN", "STARS": "2.5", "CLUSTER": null }, "geometry": { "type": "Point", "coordinates": [ 1.582332, 42.536339 ] } },
{ "type": "Feature", "properties": { "NAME": "Xurrasqueria Moncanense", "LAT": 42.533863, "LON": 1.580240, "CAPACITY": 30, "LANGS": "CA,ES,FR", "STARS": "2.5", "CLUSTER": null }, "geometry": { "type": "Point", "coordinates": [ 1.58024, 42.533863 ] } },
{ "type": "Feature", "properties": { "NAME": "Restaurant Cafeteria L'Orri", "LAT": 42.507184, "LON": 1.525855, "CAPACITY": 70, "LANGS": "CA,ES,FR", "STARS": "2.5", "CLUSTER": null }, "geometry": { "type": "Point", "coordinates": [ 1.525855, 42.507184 ] } },
{ "type": "Feature", "properties": { "NAME": "La Mossegada", "LAT": 42.508964, "LON": 1.529149, "CAPACITY": 140, "LANGS": "CA,ES,FR", "STARS": "2.5", "CLUSTER": null }, "geometry": { "type": "Point", "coordinates": [ 1.529149, 42.508964 ] } },
{ "type": "Feature", "properties": { "NAME": "Vilarrasa", "LAT": 42.508272, "LON": 1.521311, "CAPACITY": 70, "LANGS": "CA,ES,FR,EN", "STARS": "2.5", "CLUSTER": null }, "geometry": { "type": "Point", "coordinates": [ 1.521311, 42.508272 ] } },
{ "type": "Feature", "properties": { "NAME": "Bellpi", "LAT": 42.503825, "LON": 1.514091, "CAPACITY": 30, "LANGS": "CA,ES,FR", "STARS": "2.5", "CLUSTER": null }, "geometry": { "type": "Point", "coordinates": [ 1.514091, 42.503825 ] } },
{ "type": "Feature", "properties": { "NAME": "L'Aig�eta", "LAT": 42.505191, "LON": 1.525394, "CAPACITY": 160, "LANGS": "CA,ES,FR,EN", "STARS": "2.5", "CLUSTER": null }, "geometry": { "type": "Point", "coordinates": [ 1.525394, 42.505191 ] } },
{ "type": "Feature", "properties": { "NAME": "Borda De Conangle", "LAT": 42.441131, "LON": 1.500406, "CAPACITY": 50, "LANGS": null, "STARS": "2.5", "CLUSTER": null }, "geometry": { "type": "Point", "coordinates": [ 1.500406, 42.441131 ] } },
{ "type": "Feature", "properties": { "NAME": "La Taverna Cal Forest", "LAT": 42.508758, "LON": 1.537238, "CAPACITY": 70, "LANGS": "CA,ES,FR,EN", "STARS": "2.5", "CLUSTER": null }, "geometry": { "type": "Point", "coordinates": [ 1.537238, 42.508758 ] } },
{ "type": "Feature", "properties": { "NAME": "Restaurant Camp Del Serrat", "LAT": 42.517434, "LON": 1.568223, "CAPACITY": 125, "LANGS": "CA,ES,FR,EN", "STARS": "2.5", "CLUSTER": null }, "geometry": { "type": "Point", "coordinates": [ 1.568223, 42.517434 ] } },
{ "type": "Feature", "properties": { "NAME": "La Taverna Del Pas", "LAT": 42.543374, "LON": 1.731741, "CAPACITY": 130, "LANGS": "CA,ES,FR,EN", "STARS": "2", "CLUSTER": null }, "geometry": { "type": "Point", "coordinates": [ 1.731741, 42.543374 ] } },
{ "type": "Feature", "properties": { "NAME": "El Central", "LAT": 42.542916, "LON": 1.733683, "CAPACITY": 170, "LANGS": "CA,ES,FR,EN", "STARS": "2", "CLUSTER": null }, "geometry": { "type": "Point", "coordinates": [ 1.733683, 42.542916 ] } },
{ "type": "Feature", "properties": { "NAME": "Cal Ruiz", "LAT": 42.544007, "LON": 1.733329, "CAPACITY": 30, "LANGS": "CA,ES,FR,EN", "STARS": "2", "CLUSTER": null }, "geometry": { "type": "Point", "coordinates": [ 1.733329, 42.544007 ] } },
{ "type": "Feature", "properties": { "NAME": "Gino's Pizzeria", "LAT": 42.543752, "LON": 1.732158, "CAPACITY": 60, "LANGS": "CA,ES,FR,EN", "STARS": "2", "CLUSTER": null }, "geometry": { "type": "Point", "coordinates": [ 1.732158, 42.543752 ] } },
{ "type": "Feature", "properties": { "NAME": "Marco Polo", "LAT": 42.542618, "LON": 1.516964, "CAPACITY": 180, "LANGS": "CA,ES,FR,EN", "STARS": "2", "CLUSTER": null }, "geometry": { "type": "Point", "coordinates": [ 1.516964, 42.542618 ] } },
{ "type": "Feature", "properties": { "NAME": "Restaurant Central", "LAT": 42.505612, "LON": 1.526125, "CAPACITY": 30, "LANGS": "CA,ES,FR", "STARS": "2", "CLUSTER": null }, "geometry": { "type": "Point", "coordinates": [ 1.526125, 42.505612 ] } },
{ "type": "Feature", "properties": { "NAME": "Fresc Co", "LAT": 42.509174, "LON": 1.527422, "CAPACITY": 80, "LANGS": "CA,ES,FR,EN", "STARS": "2", "CLUSTER": null }, "geometry": { "type": "Point", "coordinates": [ 1.527422, 42.509174 ] } },
{ "type": "Feature", "properties": { "NAME": "Co-Princeps", "LAT": 42.468223, "LON": 1.493390, "CAPACITY": 140, "LANGS": "CA,ES,FR", "STARS": "2", "CLUSTER": null }, "geometry": { "type": "Point", "coordinates": [ 1.49339, 42.468223 ] } },
{ "type": "Feature", "properties": { "NAME": "La Taverna Del Pa Amb Tomaquet", "LAT": 42.508679, "LON": 1.539105, "CAPACITY": 65, "LANGS": "CA,ES,FR,EN", "STARS": "2", "CLUSTER": null }, "geometry": { "type": "Point", "coordinates": [ 1.539105, 42.508679 ] } },
{ "type": "Feature", "properties": { "NAME": "Restaurant La Rabassa", "LAT": 42.447761, "LON": 1.508746, "CAPACITY": 50, "LANGS": "CA,ES", "STARS": "1,5", "CLUSTER": null }, "geometry": { "type": "Point", "coordinates": [ 1.508746, 42.447761 ] } },
{ "type": "Feature", "properties": { "NAME": "Arts Bufet", "LAT": 42.508221, "LON": 1.536351, "CAPACITY": 80, "LANGS": "CA,ES,FR,EN", "STARS": "1,5", "CLUSTER": null }, "geometry": { "type": "Point", "coordinates": [ 1.536351, 42.508221 ] } },
{ "type": "Feature", "properties": { "NAME": "La Taverna Americana", "LAT": 42.543461, "LON": 1.732138, "CAPACITY": 120, "LANGS": "CA,ES,FR,EN", "STARS": "1", "CLUSTER": null }, "geometry": { "type": "Point", "coordinates": [ 1.732138, 42.543461 ] } },
{ "type": "Feature", "properties": { "NAME": "La Massana", "LAT": 42.546010, "LON": 1.514406, "CAPACITY": 10000, "LANGS": "CA,ES,FR,EN,RU", "STARS": "5", "CLUSTER": 1 }, "geometry": { "type": "Point", "coordinates": [ 1.524388392509336, 42.519539942234616 ] } },
{ "type": "Feature", "properties": { "NAME": "Encamp", "LAT": 42.531662, "LON": 1.574418, "CAPACITY": 11000, "LANGS": "8000", "STARS": "4", "CLUSTER": 1 }, "geometry": { "type": "Point", "coordinates": [ 1.551633109424205, 42.512130071151326 ] } },
{ "type": "Feature", "properties": { "NAME": "St Julia", "LAT": 42.464990, "LON": 1.491978, "CAPACITY": 7000, "LANGS": "CA,ES,FR,EN", "STARS": "4", "CLUSTER": 1 }, "geometry": { "type": "Point", "coordinates": [ 1.50675945803501, 42.497844797264634 ] } }
]
}
